School Name,BoroughCode,Geographical District,Project Description,Construction Award,Project type,Building ID,Building Address,City,Postcode,Borough,Latitude,Longitude,Community Board,Council District,Census Tract,BIN,BBL,NTA,Location 1,Data As Of
P.S. 101 - BROOKLYN,K,21,Addition,65999000,CAP,K101,2360 BENSON AVENUE,Brooklyn,11214,BROOKLYN ,40.597863,-73.991693,11,47,302,3185973,3068750032,Bensonhurst East                                                           ,"(40.597863, -73.991693)",
P.S./I.S. 338 - BROOKLYN,K,22,Demo,739309,CAP,K338,510 CONEY ISLAND AVE,Brooklyn,11218,BROOKLYN ,40.645199,-73.97052,12,40,492,3124797,3053420006,Kensington-Ocean Parkway                                                   ,"(40.645199, -73.97052)",
P.S./I.S. 338 - BROOKLYN,K,22,New,67683691,CAP,K338,510 CONEY ISLAND AVE,Brooklyn,11218,BROOKLYN ,40.645199,-73.97052,12,40,492,3124797,3053420006,Kensington-Ocean Parkway                                                   ,"(40.645199, -73.97052)",
PRE-K CENTER @ 369 93RD STREET - BROOKLYN,K,20,New,27637000,CAP,K613,369 93RD STREET,Brooklyn,11209,BROOKLYN ,40.618041,-74.031381,10,43,58,3155119,3061030042,Bay Ridge                                                                  ,"(40.618041, -74.031381)",
PRE-K CENTER @ 219 25TH STREET - BROOKLYN,K,15,Lease,8464400,CAP,K661,219 25TH STREET,Brooklyn,11232,BROOKLYN ,40.659882,-73.997016,7,38,101,3336859,3006520070,Sunset Park West                                                           ,"(40.659882, -73.997016)",
PRE-K CENTER @ 1223 CONEY ISLAND AVENUE - BROOKLYN,K,21,Lease,6584000,CAP,K672,1223 CONEY ISLAND AVENUE,Brooklyn,11230,BROOKLYN ,40.62782,-73.96574,14,45,530,3179195,3066950056,Midwood                                                                    ,"(40.62782, -73.96574)",
P.S. 677 - BROOKLYN,K,84,Lease,0,CAP,K677,139 MENAHAN STREET,Brooklyn,11221,BROOKLYN ,40.695717,-73.919473,4,37,419,3325706,3033060015,Bushwick South                                                             ,"(40.695717, -73.919473)",
P.S. 677 - BROOKLYN,K,84,Lease,3165000,CAP,K677,139 MENAHAN STREET,Brooklyn,11221,BROOKLYN ,40.695717,-73.919473,4,37,419,3325706,3033060015,Bushwick South                                                             ,"(40.695717, -73.919473)",
PRE-K CENTER @ 1423 62ND STREET - BROOKLYN,K,20,Lease,24882000,CAP,K678,1423 62ND STREET,Brooklyn,11219,BROOKLYN ,40.625899,-73.996729,11,44,250,3141384,3057270010,Bensonhurst West                                                           ,"(40.625899, -73.996729)",
PRE-K CENTER @ 1355 84TH STREET - BROOKLYN,K,20,Lease,0,CAP,K762,1355 84TH STREET,Brooklyn,11228,BROOKLYN ,40.614466,-74.011425,10,43,150,3335077,3063090048,Dyker Heights                                                              ,"(40.614466, -74.011425)",
P.S. 884 - BROOKLYN,K,84,Lease,0,CAP,K884,15 SNYDER AVENUE,Brooklyn,11226,BROOKLYN ,40.648568,-73.957639,14,40,794,3117232,3051030101,Erasmus                                                                    ,"(40.648568, -73.957639)",
P.S. 884 - BROOKLYN,K,84,Lease,2162000,CAP,K884,15 SNYDER AVENUE,Brooklyn,11226,BROOKLYN ,40.648568,-73.957639,14,40,794,3117232,3051030101,Erasmus                                                                    ,"(40.648568, -73.957639)",
I.S. 323 - MANHATTAN,M,2,New,98820000,CAP,M323,75 MORTON STREET,Manhattan,10014,MANHATTAN,40.730999,-74.007191,2,3,69,1010407,1006030049,West Village                                                               ,"(40.730999, -74.007191)",
P.S. 342 (RIVERSIDE CENTER) - MANHATTAN,M,3,New,74425721,CAP,M342,21 WEST END AVENUE,Manhattan,10023,MANHATTAN,40.772463,-73.989844,7,6,151,1088870,1011717510,Lincoln Square                                                             ,"(40.772463, -73.989844)",
PRE-K CENTER @ 2 LAFAYETTE STREET - MANHATTAN,M,2,Interior,5144096,CAP,M453,2 LAFAYETTE STREET,Manhattan,10007,MANHATTAN,40.713723,-74.003586,1,1,31,1001672,1001550001,SoHo-TriBeCa-Civic Center-Little Italy                                     ,"(40.713723, -74.003586)",
,M,2,,0,CAP,M777,227 WEST 27TH STREET,Manhattan,,,,,,,,,,,,
ISHS @ M837,M,78,Lease,387600,CAP,M837,227-243 WEST 61 STREET,Manhattan,10023,MANHATTAN,40.772007,-73.987479,7,6,151,1030328,1011540108,Lincoln Square                                                             ,"(40.772007, -73.987479)",
ISHS @ M837,M,78,Lease,13694000,CAP,M837,227-243 WEST 61 STREET,Manhattan,10023,MANHATTAN,40.772007,-73.987479,7,6,151,1030328,1011540108,Lincoln Square                                                             ,"(40.772007, -73.987479)",
P.S. 303 - QUEENS,Q,28,Addition,65987000,CAP,Q003,108-55 69TH AVENUE,Queens,11375,QUEENS   ,40.725098,-73.845091,6,29,739,4052265,4022180021,Forest Hills                                                               ,"(40.725098, -73.845091)",
P.S. 303 - QUEENS,Q,28,Demo,5183000,CAP,Q003,108-55 69TH AVENUE,Queens,11375,QUEENS   ,40.725098,-73.845091,6,29,739,4052265,4022180021,Forest Hills                                                               ,"(40.725098, -73.845091)",
P.S. 11 - QUEENS,Q,30,Addition,91875000,CAP,Q011,54-25 SKILLMAN AVENUE,Queens,11377,QUEENS   ,40.745244,-73.90872,2,26,251,4552510,4012390001,Woodside                                                                   ,"(40.745244, -73.90872)",
P.S. 19 - QUEENS,Q,24,Addition,95491911,CAP,Q019,98-02 ROOSEVELT AVENUE,Queens,11368,QUEENS   ,40.749381,-73.867354,4,21,409,4437176,4016070001,North Corona                                                               ,"(40.749381, -73.867354)",
P.S. 24 - QUEENS,Q,25,Addition,82451000,CAP,Q024,141-11 HOLLY AVENUE,Queens,11355,QUEENS   ,40.75146,-73.817849,7,20,1205,4117403,4052010021,East Flushing                                                              ,"(40.75146, -73.817849)",
P.S. 24 - QUEENS,Q,25,Demo,2717000,CAP,Q024,141-11 HOLLY AVENUE,Queens,11355,QUEENS   ,40.75146,-73.817849,7,20,1205,4117403,4052010021,East Flushing                                                              ,"(40.75146, -73.817849)",
P.S. 35 - QUEENS,Q,29,Addition,42808000,CAP,Q035,191-02 90TH AVENUE,Queens,11423,QUEENS   ,40.713759,-73.769439,12,23,482,4222137,4104470007,Hollis                                                                     ,"(40.713759, -73.769439)",
P.S. 49 - QUEENS,Q,24,Addition,31534000,CAP,Q049,63-60 80TH STREET,Queens,11379,QUEENS   ,40.719867,-73.875093,5,30,663,4069253,4029900045,Middle Village                                                             ,"(40.719867, -73.875093)",
P.S. 50 - QUEENS,Q,28,Addition,55182000,CAP,Q050,143-26 101 AVENUE,Queens,11435,QUEENS   ,40.695238,-73.807364,12,28,206,4214461,4100240012,Jamaica                                                                    ,"(40.695238, -73.807364)",
I.S. 125 - QUEENS,Q,24,Addition,83800000,CAP,Q125,46-02 47 AVENUE,Queens,11377,QUEENS   ,40.741131,-73.918945,2,26,235,4052874,4022840006,Hunters Point-Sunnyside-West Maspeth                                       ,"(40.741131, -73.918945)",
P.S. 143 - QUEENS,Q,24,Demo,2688000,CAP,Q143,34-74 113 STREET,Queens,11368,QUEENS   ,40.755451,-73.855192,3,21,381,4043827,4017560025,North Corona                                                               ,"(40.755451, -73.855192)",
P.S. 163 - QUEENS,Q,25,Addition,43834000,CAP,Q163,159-01 59 AVENUE,Queens,11365,QUEENS   ,40.740565,-73.809131,7,20,1215,4146042,4067260070,Queensboro Hill                                                            ,"(40.740565, -73.809131)",
P.S. 176 - QUEENS,Q,29,Addition,50247000,CAP,Q176,120-45 235 STREET,Queens,11411,QUEENS   ,40.685492,-73.729982,13,27,614,4276382,4128200001,Cambria Heights                                                            ,"(40.685492, -73.729982)",
P.S. 92 - QUEENS,Q,30,Addition,42410002,CAP,Q292,99-01 34TH AVENUE,Queens,11368,QUEENS   ,40.755418,-73.869017,3,21,377,4042496,4017140018,North Corona                                                               ,"(40.755418, -73.869017)",
P.S. 298 - QUEENS,Q,24,New,76850000,CAP,Q298,50-51 98TH STREET,Queens,11368,QUEENS   ,40.742167,-73.864109,4,21,44302,4046832,4018910001,Corona                                                                     ,"(40.742167, -73.864109)",
PRE-K CENTER @ 70-24 47TH AVENUE - QUEENS,Q,24,Lease,2458500,CAP,Q321,70-24 47TH AVENUE,Queens,11377,QUEENS   ,40.739014,-73.893771,2,30,489,4441128,4024450001,Elmhurst-Maspeth                                                           ,"(40.739014, -73.893771)",
P.S. 332 - QUEENS,Q,26,New,66643000,CAP,Q332,210-07 48TH AVENUE,Queens,11364,QUEENS   ,40.754954,-73.770314,11,19,1447,4157240,4073270049,Bayside-Bayside Hills                                                      ,"(40.754954, -73.770314)",
P.S. 335 - QUEENS,Q,27,New,70885000,CAP,Q335,150-15 RALEIGH STREET,Queens,11418,QUEENS   ,40.668127,-73.837189,10,32,88,4000000,4115600001,Ozone Park                                                                 ,"(40.668127, -73.837189)",
IS/HS 336 - QUEENS,Q,78,Lease,19987000,CAP,Q336,124-06 14TH AVENUE,Queens,11356,QUEENS   ,40.785327,-73.843749,7,19,925,4098406,4040890045,College Point                                                              ,"(40.785327, -73.843749)",
PRE-K CENTER @ 32-52 37TH STREET - QUEENS,Q,30,Lease,6813171,CAP,Q397,32-52 37TH STREET,Queens,11103,QUEENS   ,40.759308,-73.920948,1,22,59,4436898,4006470016,Astoria                                                                    ,"(40.759308, -73.920948)",
P.S. 398 - QUEENS,Q,30,Demo,1708504,CAP,Q398,69-01 34TH AVENUE,Queens,11377,QUEENS   ,40.752493,-73.896922,3,25,291,4028492,4012420032,Jackson Heights                                                            ,"(40.752493, -73.896922)",
PRE-K CENTER @ JACKSON AVENUE - QUEENS,Q,30,Lease,8248692,CAP,Q972,27-35 JACKSON AVENUE,Queens,11101,QUEENS   ,40.747962,-73.940046,2,26,19,4005127,4004320008,Hunters Point-Sunnyside-West Maspeth                                       ,"(40.747962, -73.940046)",
P.S. 82 - STATEN ISLAND,R,31,Lease,9271638,CAP,R082,104 GORDON STREET,Staten Is,10304,STATEN IS,40.624263,-74.082667,1,49,21,5106870,5005430017,Stapleton-Rosebank                                                         ,"(40.624263, -74.082667)",
CURTIS HIGH SCHOOL ANNEX - STATEN ISLAND,R,78,Addition,69360558,CAP,R453,105B HAMILTON AVENUE,Staten Is,10301,STATEN IS,40.644735,-74.081222,1,49,7,,,West New Brighton-New Brighton-St. George                                  ,"(40.644735, -74.081222)",
SUSAN E. WAGNER HS ANNEX - STATEN ISLAND,R,78,Addition,24981900,CAP,R462,1220 MANOR ROAD,Staten Is,10314,STATEN IS,40.596624,-74.124334,2,50,181,5164530,5009550100,Todt Hill-Emerson Hill-Heartland Village-Lighthouse Hill                   ,"(40.596624, -74.124334)",
P.S. 14 - BRONX,X,8,Addition,50850000,CAP,X014,3041 BRUCKNER BLVD,Bronx,10461,BRONX    ,40.835779,-73.825735,10,13,184,2072754,2053130092,Schuylerville-Throgs Neck-Edgewater Park                                   ,"(40.835779, -73.825735)",
P.S. 46 - BRONX,X,10,Addition,84478000,CAP,X046,279 EAST 196 STREET,Bronx,10458,BRONX    ,40.866827,-73.890725,7,15,40501,2094729,2032950001,Bedford Park-Fordham North                                                 ,"(40.866827, -73.890725)",
P.S. 46 - BRONX,X,10,Demo,2775000,CAP,X046,279 EAST 196 STREET,Bronx,10458,BRONX    ,40.866827,-73.890725,7,15,40501,2094729,2032950001,Bedford Park-Fordham North                                                 ,"(40.866827, -73.890725)",
P.S. 56 - BRONX,X,10,Addition,49723000,CAP,X056,341 EAST 207 STREET,Bronx,10467,BRONX    ,40.875156,-73.875217,7,11,42902,2018457,2033510001,Norwood                                                                    ,"(40.875156, -73.875217)",
P.S. 317 - BRONX,X,8,New,49393937,CAP,X317,1028 WHITE PLAINS ROAD,Bronx,10472,BRONX    ,40.827029,-73.860034,9,18,4001,2000000,2037330005,Soundview-Bruckner                                                         ,"(40.827029, -73.860034)",
PRE-K CENTER 2 @ 2490-2500 WEBSTER AVENUE - BRONX,X,10,Lease,11645000,CAP,X432,2490-2500 WEBSTER AVE,Bronx,10458,BRONX    ,40.860848,-73.892224,6,15,38302,2094608,2030330004,Fordham South                                                              ,"(40.860848, -73.892224)",
PRE-K CENTER @ 2510 MARION AVENUE - BRONX,X,10,Lease,9167000,CAP,X444,2510 MARION AVENUE,Bronx,10458,BRONX    ,40.861286,-73.893258,5,15,39902,2011069,2030260014,Bedford Park-Fordham North                                                 ,"(40.861286, -73.893258)",
P.S. 315 - BRONX,X,10,Lease,14400000,CAP,X779,2865 CLAFLIN AVENUE,Bronx,10468,BRONX    ,40.873239,-73.899722,8,14,26702,2086833,2032500073,Van Cortlandt Village                                                      ,"(40.873239, -73.899722)",
P.S. 3 - BROOKLYN,K,13,PLANYC BOILER CNVRSN/PLANYC CLIMATE CTRL,5811800,CIP,K003,50 JEFFERSON AVENUE,Brooklyn,11216,BROOKLYN ,40.682663,-73.955338,3,36,227,3057406,3019980001,Clinton Hill                                                               ,"(40.682663, -73.955338)",
I.S. 14 - BROOKLYN,K,22,WATER PENETRATION/PLANYC BOILER/PLANYC CLIMATE,8218900,CIP,K014,2424 BATCHELDER STREET,Brooklyn,11235,BROOKLYN ,40.593521,-73.937672,15,48,596,3203617,3074240001,Sheepshead Bay-Gerritsen Beach-Manhattan Beach                             ,"(40.593521, -73.937672)",
P.S. 15 - BROOKLYN,K,15,SANDY - INSTALL TEMPORARY BOILERS,550000,CIP,K015,71 SULLIVAN STREET,Brooklyn,11231,BROOKLYN ,40.677343,-74.011558,6,38,53,3008585,3005660001,Carroll Gardens-Columbia Street-Red Hook                                   ,"(40.677343, -74.011558)",
P.S. 19 - BROOKLYN,K,14,FY16 RESO A PLAYGROUND REDVELOPMENT,345025,CIP,K019,325 SOUTH 3RD STREET,Brooklyn,11211,BROOKLYN ,40.709647,-73.95465,1,34,527,3063188,3024230001,North Side-South Side                                                      ,"(40.709647, -73.95465)",
P.S. 25 - BROOKLYN,K,16,ROOFS/PARAPETS/EXT MASONRY/EXT DOORS,6297397,CIP,K025,787 LAFAYETTE AVENUE,Brooklyn,11221,BROOKLYN ,40.691037,-73.941342,3,36,281,3049858,3017870014,Stuyvesant Heights                                                         ,"(40.691037, -73.941342)",
I.S. 393 - BROOKLYN,K,16,FULL PROGRAM ACCESSIBILITY/LOW VOLTAGE ELECTRICAL,6750000,CIP,K026,1014 LAFAYETTE AVENUE,Brooklyn,11221,BROOKLYN ,40.692126,-73.931731,3,36,291,3393805,3016160001,Stuyvesant Heights                                                         ,"(40.692126, -73.931731)",
P.S. 26 - BROOKLYN,K,16,FY13 RESO A PLAYGROUND REDEVELOPMENT,799345,CIP,K026,1014 LAFAYETTE AVENUE,Brooklyn,11221,BROOKLYN ,40.692126,-73.931731,3,36,291,3393805,3016160001,Stuyvesant Heights                                                         ,"(40.692126, -73.931731)",
P.S. 31 - BROOKLYN,K,14,EXTERIOR MASONRY/PARAPETS,3879237,CIP,K031,75 MESEROLE AVENUE,Brooklyn,11222,BROOKLYN ,40.726587,-73.95427,1,33,561,3065299,3025950001,Greenpoint                                                                 ,"(40.726587, -73.95427)",
I.S. 330 - BROOKLYN,K,14,KITCHEN FLOORING/FLOOD/ANSUL SYSTEM,1348916,CIP,K033,70 TOMPKINS AVENUE,Brooklyn,11206,BROOKLYN ,40.697152,-73.946641,3,36,257,3048517,3017430018,Bedford                                                                    ,"(40.697152, -73.946641)",
P.S. 34 - BROOKLYN,K,14,PLANYC BOILER CNVRSN/PLANYC CLIMATE CTRL,4448000,CIP,K034,131 NORMAN AVENUE,Brooklyn,11222,BROOKLYN ,40.726135,-73.949649,1,33,573,3065733,3026220028,Greenpoint                                                                 ,"(40.726135, -73.949649)",
P.S. 44 - BROOKLYN,K,13,PLANYC BOILER/PLANYC CLIMATE CTRL/FIRE ALARM,5862800,CIP,K044,432 MONROE STREET,Brooklyn,11221,BROOKLYN ,40.686592,-73.940747,3,36,277,3051540,3018210001,Stuyvesant Heights                                                         ,"(40.686592, -73.940747)",
P.S. 46 - BROOKLYN,K,13,AUDITORIUM UPGRADE,689600,CIP,K046,100 CLERMONT AVENUE,Brooklyn,11205,BROOKLYN ,40.694633,-73.971165,2,35,187,3058088,3020450011,Fort Greene                                                                ,"(40.694633, -73.971165)",
LYONS COMMUNITY SCHOOL - K,K,14,PARAPETS/FLOOD ELIMINATION/ROOFS/MASONRY/GYM UPG,8853000,CIP,K049,223 GRAHAM AVENUE,Brooklyn,11206,BROOKLYN ,40.709941,-73.943641,1,34,505,3070825,3030250001,East Williamsburg                                                          ,"(40.709941, -73.943641)",
J.H.S. 57 - BROOKLYN,K,16,PUBLIC ADDRESS SYSTEM REPLACEMENT,590000,CIP,K057,125 STUYVESANT AVENUE,Brooklyn,11221,BROOKLYN ,40.691274,-73.933697,3,36,291,3043822,3016160001,Stuyvesant Heights                                                         ,"(40.691274, -73.933697)",
P.S. 73 - BROOKLYN,K,23,EXT MASONRY/FLOOD ELIMINATION/PARAPETS/ROOFS,10789000,CIP,K073,251 MACDOUGAL STREET,Brooklyn,11233,BROOKLYN ,40.680318,-73.910644,16,37,369,3041561,3015280001,Ocean Hill                                                                 ,"(40.680318, -73.910644)",
K753 SPED - BROOKLYN,K,13,LOW VOLTAGE ELEC SYSTEM/ANSUL SYSTEM,706260,CIP,K085,510 CLERMONT AVENUE,Brooklyn,11238,BROOKLYN ,40.682533,-73.968769,2,35,179,3057521,3020080001,Fort Greene                                                                ,"(40.682533, -73.968769)",
I.S. 88 - BROOKLYN,K,15,PLAYNYC BOILER CONVERSION/CLIMATE CONTROL,5896000,CIP,K088,544 7TH AVENUE,Brooklyn,11215,BROOKLYN ,40.660024,-73.987637,7,38,147,3331276,3008800001,Sunset Park West                                                           ,"(40.660024, -73.987637)",
P.S. 95 - BROOKLYN,K,21,PARAPET/ROOFS/EXT MASONRY,4743000,CIP,K095,345 VAN SICKLEN STREET,Brooklyn,11223,BROOKLYN ,40.595698,-73.97518,15,47,398,3192661,3071230066,Gravesend                                                                  ,"(40.595698, -73.97518)",
P.S. 104 - BROOKLYN,K,20,WATER INFILTRATION/FLOOD/PARAPETS/ROOFS,10521000,CIP,K104,9115 5TH AVENUE,Brooklyn,11209,BROOKLYN ,40.618415,-74.028842,10,43,160,3154775,3060880001,Bay Ridge                                                                  ,"(40.618415, -74.028842)",
P.S. 106 - BROOKLYN,K,32,FY 15 RESO A ROOM CONVERSION,375000,CIP,K106,1328 PUTNAM AVENUE,Brooklyn,11221,BROOKLYN ,40.693879,-73.913056,4,37,435,3077286,3033770001,Bushwick North                                                             ,"(40.693879, -73.913056)",
I.S. 349 - BROOKLYN,K,32,SCIENCE LAB UPGRADES,2039000,CIP,K111,35 STARR STREET,Brooklyn,11221,BROOKLYN ,40.70069,-73.927481,4,34,423,3072497,3031850001,Bushwick South                                                             ,"(40.70069, -73.927481)",
P.S. 114 - BROOKLYN,K,18,EXTERIOR MASONRY,2188000,CIP,K114,1077 REMSEN AVENUE,Brooklyn,11236,BROOKLYN ,40.642792,-73.908806,18,46,964,3229159,3081600022,Canarsie                                                                   ,"(40.642792, -73.908806)",
BROOKLYN COMM. HS OF COMMUNICA,K,13,EXTERIOR MASONRY/PARAPETS/ROOFS,10535000,CIP,K117,300 WILLOUGHBY AVENUE,Brooklyn,11205,BROOKLYN ,40.692642,-73.958794,3,33,235,3055165,3019260010,Clinton Hill                                                               ,"(40.692642, -73.958794)",
P.S. 119 - BROOKLYN,K,22,PLANYC BOILER CNVRSN/PLANYC CLIMATE CTRL,5447000,CIP,K119,3829 AVENUE K,Brooklyn,11210,BROOKLYN ,40.625662,-73.938265,18,45,734,3215816,3077860001,Flatlands                                                                  ,"(40.625662, -73.938265)",
P.S. 130 - BROOKLYN,K,15,WATER PENETRATION THROUGH EXTERIOR/PARAPETS/ROOFS,12025000,CIP,K130,70 OCEAN PARKWAY,Brooklyn,11218,BROOKLYN ,40.648884,-73.975607,7,39,500,3124019,3053190001,Windsor Terrace                                                            ,"(40.648884, -73.975607)",
I.S. 136 - BROOKLYN,K,15,RPZ VALVES/LOW VOLTAGE ELEC SYSTEM,1971000,CIP,K136,4004 4TH AVENUE,Brooklyn,11232,BROOKLYN ,40.651977,-74.006862,7,38,82,3010580,3007130020,Sunset Park West                                                           ,"(40.651977, -74.006862)",
I.S. 821 - BROOKLYN,K,15,FY16 RESO A GYMNASIUM UPGRADE,245842,CIP,K136,4004 4TH AVENUE,Brooklyn,11232,BROOKLYN ,40.651977,-74.006862,7,38,82,3010580,3007130020,Sunset Park West                                                           ,"(40.651977, -74.006862)",
P.S. 138 - BROOKLYN,K,17,LIGHTING REPLACEMENT (DCAS),1696100,CIP,K138,760 PROSPECT PLACE,Brooklyn,11216,BROOKLYN ,40.67438,-73.951443,8,36,31701,3330794,3012330026,Crown Heights North                                                        ,"(40.67438, -73.951443)",
P.S. 152 - BROOKLYN,K,22,TCU REMOVAL & PLAYGROUND REDEVELOPMENT,1198890,CIP,K152,725 EAST 23 STREET,Brooklyn,11210,BROOKLYN ,40.632562,-73.954724,14,45,772,3205780,3075510026,Flatbush                                                                   ,"(40.632562, -73.954724)",
P.S. 160 - BROOKLYN,K,20,EXTERIOR MASONRY/FLOOD ELMNTN/PARAPETS,5700400,CIP,K160,5105 FORT HAMILTON PARKWAY,Brooklyn,11219,BROOKLYN ,40.637322,-73.999215,12,44,220,3138276,3056530021,Borough Park                                                               ,"(40.637322, -73.999215)",
P.S. 179 - BROOKLYN,K,20,FY16 RESO A AUDITORIUM UPGRADE,160460,CIP,K179,202 AVENUE C,Brooklyn,11218,BROOKLYN ,40.640463,-73.977642,12,39,488,3126001,3053710001,Kensington-Ocean Parkway                                                   ,"(40.640463, -73.977642)",
P.S. 188 - BROOKLYN,K,21,SANDY:INT/HEATING/ELEC/FLOOD/CLIMATE/VENT/FA,13757000,CIP,K188,3314 NEPTUNE AVENUE,Brooklyn,11224,BROOKLYN ,40.577217,-74.000194,13,47,328,3188726,3070060001,Seagate-Coney Island                                                       ,"(40.577217, -74.000194)",
P.S. 192 - BROOKLYN,K,20,DETERIORATED WINDOW WELL WALLS/FLOOD/PARAPETS/ROOF,5387000,CIP,K192,4715 18 AVENUE,Brooklyn,11204,BROOKLYN ,40.629303,-73.979995,12,44,476,3128909,3054450001,Borough Park                                                               ,"(40.629303, -73.979995)",
P.S. 193 - BROOKLYN,K,22,TCU REMOVAL & PLAYGROUND REDEVELOPMENT,1298835,CIP,K193,2515 AVENUE L,Brooklyn,11210,BROOKLYN ,40.621507,-73.950473,14,45,754,3208461,3076250001,Midwood                                                                    ,"(40.621507, -73.950473)",
P.S. 194 - BROOKLYN,K,22,MASONRY/WINDOWS/ROOFS/PARAPETS,4389000,CIP,K194,3117 AVENUE W,Brooklyn,11229,BROOKLYN ,40.596757,-73.933499,15,46,570,3201629,3073930001,Sheepshead Bay-Gerritsen Beach-Manhattan Beach                             ,"(40.596757, -73.933499)",
P.S. 195 - BROOKLYN,K,22,SANDY- TEMP BOILER,849500,CIP,K195,131 IRWIN STREET,Brooklyn,11235,BROOKLYN ,40.579451,-73.943819,15,48,620,3246519,3087520035,Sheepshead Bay-Gerritsen Beach-Manhattan Beach                             ,"(40.579451, -73.943819)",
P.S. 196 - BROOKLYN,K,14,FY16 RESO A LIBRARY UPGRADE,131000,CIP,K196,207 BUSHWICK AVENUE,Brooklyn,11206,BROOKLYN ,40.708723,-73.940002,1,34,485,3071024,3030460001,Bushwick South                                                             ,"(40.708723, -73.940002)",
P.S. 198 - BROOKLYN,K,22,PLAYGROUND REDEVELOPMENT AND TCU,1230964.98,CIP,K198,4105 FARRAGUT ROAD,Brooklyn,11210,BROOKLYN ,40.63694,-73.937339,17,45,836,3113388,3049880066,East Flatbush-Farragut                                                     ,"(40.63694, -73.937339)",
I.S. 201 - BROOKLYN,K,20,PARAPETS/EXT MASONRY/CONCRETE/FLOOD/ROOF,20782700,CIP,K201,8010 12 AVENUE,Brooklyn,11228,BROOKLYN ,40.618676,-74.012722,10,43,166,3162973,3062780022,Dyker Heights                                                              ,"(40.618676, -74.012722)",
P.S. 208 - BROOKLYN,K,18,"CRACKED MASONRY, DETERIORATED MORTAR/FLOOD/WINDOWS",2117000,CIP,K208,4801 AVENUE D,Brooklyn,11203,BROOKLYN ,40.642031,-73.931151,17,45,840,3105680,3047690025,East Flatbush-Farragut                                                     ,"(40.642031, -73.931151)",
I.S. 211 - BROOKLYN,K,18,INTERIOR SPACES/HEATING PLT/ELEC/CLIMATE/FLOOD EL,10968000,CIP,K211,1001 EAST 100 STREET,Brooklyn,11236,BROOKLYN ,40.643278,-73.896212,18,46,988,3326732,3082270001,Canarsie                                                                   ,"(40.643278, -73.896212)",
P.S. 225 - BROOKLYN,K,21,FLOOD ELMNTN/ROOFS/EXTERIOR MASONRY/PARAPETS,8677000,CIP,K225,1075 OCEAN VIEW AVENUE,Brooklyn,11235,BROOKLYN ,40.579737,-73.956329,13,48,61004,3245498,3087120056,Brighton Beach                                                             ,"(40.579737, -73.956329)",
P.S. 235 - BROOKLYN,K,18,PLAYGROUND REDEVELOPMENT & TCU,2000000,CIP,K235,525 LENOX ROAD,Brooklyn,11203,BROOKLYN ,40.654704,-73.941089,17,41,814,3107846,3048440001,East Flatbush-Farragut                                                     ,"(40.654704, -73.941089)",
I.S. 239 - BROOKLYN,K,21,SANDY:INTERIOR/CONCRETE/HEAT/ELEC/FLOOD/FA,19640000,CIP,K239,2401 NEPTUNE AVENUE,Brooklyn,11224,BROOKLYN ,40.578188,-73.99203,13,47,330,3188221,3069650140,Seagate-Coney Island                                                       ,"(40.578188, -73.99203)",
P.S. 235 - BROOKLYN,K,18,STRUCTURAL DEFECTS,890000,CIP,K242,10001 FLATLANDS AVENUE,Brooklyn,11236,BROOKLYN ,40.645243,-73.898241,18,46,974,3229773,3081880001,Canarsie                                                                   ,"(40.645243, -73.898241)",
P.S. 244 - BROOKLYN,K,18,MORTAR JOINTS DETERIOR /FLOOD/PARAPETS/ROOF/WINDOW,10147000,CIP,K244,5404 TILDEN AVENUE,Brooklyn,11203,BROOKLYN ,40.648423,-73.925948,17,45,946,3104513,3047390001,Rugby-Remsen Village                                                       ,"(40.648423, -73.925948)",
P.S. 251 - BROOKLYN,K,22,FY16 RESO A AUDITORIUM UPGRAD,184300,CIP,K251,1037 EAST 54 STREET,Brooklyn,11234,BROOKLYN ,40.632524,-73.924417,18,46,722,3214729,3077580001,Flatlands                                                                  ,"(40.632524, -73.924417)",
MIDDLE SCHOOL FOR ART & PHILOS,K,18,FY16 RESO A ROOM CONVERSIONS/PARTITIONING,174000,CIP,K252,1084 LENOX ROAD,Brooklyn,11212,BROOKLYN ,40.658295,-73.920109,17,41,886,3101840,3046690037,Rugby-Remsen Village                                                       ,"(40.658295, -73.920109)",
MIDDLE SCHOOL FOR ART & PHILOS,K,18,PLANYC BOILER CONVERSION/CLIMATE CONTROL,7375000,CIP,K252,1084 LENOX ROAD,Brooklyn,11212,BROOKLYN ,40.658295,-73.920109,17,41,886,3101840,3046690037,Rugby-Remsen Village                                                       ,"(40.658295, -73.920109)",
P.S. 254 - BROOKLYN,K,22,SANDY - HEATING/ELEC SYS/FLOOD ELIM/CLIMATE CONTRL,4620000,CIP,K254,1801 AVENUE Y,Brooklyn,11235,BROOKLYN ,40.590423,-73.951753,15,48,592,3203132,3074200026,Sheepshead Bay-Gerritsen Beach-Manhattan Beach                             ,"(40.590423, -73.951753)",
I.S. 259 - BROOKLYN,K,20,CRACKED EXTERIOR MASONRY/ROOFS/PARAPETS,10786000,CIP,K259,7305 FT HAMILTON PKWY,Brooklyn,11228,BROOKLYN ,40.62668,-74.01512,10,43,206,3148031,3059230001,Dyker Heights                                                              ,"(40.62668, -74.01512)",
I.S. 265 -BROOKLYN,K,13,PLANYC BOILER CNVRSN/PLANYC CLIMATE CTRL,5359400,CIP,K265,101 PARK AVENUE,Brooklyn,11205,BROOKLYN ,40.696324,-73.97578,2,35,211,3057942,3020280001,Fort Greene                                                                ,"(40.696324, -73.97578)",
P.S. 272 - BROOKLYN,K,18,PLAYGROUND REDEVELOPMENT AND TCU REMOVAL,1323000,CIP,K272,101-24 SEAVIEW AVENUE,Brooklyn,11236,BROOKLYN ,40.635916,-73.886412,18,46,1034,3235262,3083290250,Canarsie                                                                   ,"(40.635916, -73.886412)",
P.S. 279 - BROOKLYN,K,18,SANDY:INTERIOR/HEAT/ELEC/FLOOD/ELEVATOR/HVAC/FA,21599000,CIP,K279,1070 EAST 104 STREET,Brooklyn,11236,BROOKLYN ,40.644203,-73.892264,18,46,986,3326733,3082300001,Canarsie                                                                   ,"(40.644203, -73.892264)",
I.S. 281 - BROOKLYN,K,21,SANDY:ELEVATOR UPG/FLOOD/FIRE ALARM,2098915,CIP,K281,8787 24 AVENUE,Brooklyn,11214,BROOKLYN ,40.595341,-73.993457,11,47,304,3186626,3068910001,Bensonhurst East                                                           ,"(40.595341, -73.993457)",
P.S. 288 - BROOKLYN,K,21,INTERIOR SPACES/HEATING/ELEC/FLOOD/CLIMATE,12853000,CIP,K288,2950 WEST 25 STREET,Brooklyn,11224,BROOKLYN ,40.574411,-73.99194,13,47,342,3189538,3070540045,Seagate-Coney Island                                                       ,"(40.574411, -73.99194)",
P.S. 290 - BROOKLYN,K,19,TCU REMOVAL & PLAYGROUND REDEVELOPMENT,810000,CIP,K290,135 SCHENCK AVENUE,Brooklyn,11207,BROOKLYN ,40.67789,-73.889758,5,37,1198,3087821,3039490018,East New York                                                              ,"(40.67789, -73.889758)",
SCHOOL FOR INT'L STUD - K,K,15,DAMAGED EXTERIOR MASONRY/PARAPETS/ROOF,12710000,CIP,K293,284 BALTIC STREET,Brooklyn,11201,BROOKLYN ,40.685419,-73.993351,6,33,69,3006401,3004020001,DUMBO-Vinegar Hill-Downtown Brooklyn-Boerum Hill                           ,"(40.685419, -73.993351)",
I.S. 562 - BROOKLYN,K,32,FY16 RESO A AUDITORIUM UPGRADE,579130,CIP,K296,125 COVERT STREET,Brooklyn,11207,BROOKLYN ,40.688387,-73.910276,4,37,413,3079027,3034160001,Bushwick South                                                             ,"(40.688387, -73.910276)",
P.S. 297 - BROOKLYN,K,14,FY16 RESO A LIBRARY UPGRADE,181700,CIP,K297,700 PARK AVENUE,Brooklyn,11206,BROOKLYN ,40.697781,-73.947809,3,36,257,3048508,3017390011,Bedford                                                                    ,"(40.697781, -73.947809)",
LIBERTY AVENUE MIDDLE SCHOOL,K,19,TCU REMOVAL/PLAYGROUND REDEVELOPMENT,707000,CIP,K302,350 LINWOOD STREET,Brooklyn,11208,BROOKLYN ,40.677104,-73.883433,5,37,1170,3088357,3039690001,East New York                                                              ,"(40.677104, -73.883433)",
P.S. 307 - BROOKLYN,K,13,CRACKED EXT MASONRY/ROOFS/PARAPETS,6721000,CIP,K307,209 YORK STREET,Brooklyn,11201,BROOKLYN ,40.701343,-73.982314,2,33,21,3000158,3000560007,DUMBO-Vinegar Hill-Downtown Brooklyn-Boerum Hill                           ,"(40.701343, -73.982314)",
P.S. 307 - BROOKLYN,K,13,RENOVATION OF CLASSROOM 332,255965,CIP,K307,209 YORK STREET,Brooklyn,11201,BROOKLYN ,40.701343,-73.982314,2,33,21,3000158,3000560007,DUMBO-Vinegar Hill-Downtown Brooklyn-Boerum Hill                           ,"(40.701343, -73.982314)",
P.S. 308 - BROOKLYN,K,16,FY14 RESO A LIBRARY UPGRADE,463800,CIP,K308,616 QUINCY STREET,Brooklyn,11221,BROOKLYN ,40.688695,-73.935499,3,36,293,3044493,3016300001,Stuyvesant Heights                                                         ,"(40.688695, -73.935499)",
P.S. 375 - BROOKLYN,K,17,PLANYC BOILER CNVRSN/PLANYC CLIMATE CTRL,6238000,CIP,K320,46 MCKEEVER PLACE,Brooklyn,11225,BROOKLYN ,40.665035,-73.959031,9,35,325,3034356,3013010001,Crown Heights South                                                        ,"(40.665035, -73.959031)",
P.S. 321 - BROOKLYN,K,15,FULL PROGRAM ACCESSIBILITY/FIRE ALARM,5581000,CIP,K321,180 7TH AVENUE,Brooklyn,11215,BROOKLYN ,40.67146,-73.977783,6,39,155,3337516,3009710028,Park Slope-Gowanus                                                         ,"(40.67146, -73.977783)",
P.S. 377 - BROOKLYN,K,32,LL 41-16 COMPLIANCE,44175.77,CIP,K377,200 WOODBINE STREET,Brooklyn,11221,BROOKLYN ,40.694018,-73.915263,4,37,415,3076784,3033600001,Bushwick South                                                             ,"(40.694018, -73.915263)",
M.S. 354 - BROOKLYN,K,17,LIBRARY UPGRADE,687400,CIP,K390,1224 PARK PLACE,Brooklyn,11213,BROOKLYN ,40.672713,-73.936924,8,36,343,3036405,3013700029,Crown Heights North                                                        ,"(40.672713, -73.936924)",
KINGSBOROUGH EARLY COLLEGE SCH,K,21,ELECTRICAL LIGHTING FIXTURES,1445999,CIP,K400,2630 BENSON AVENUE,Brooklyn,11214,BROOKLYN ,40.594291,-73.98577,13,47,306,3186454,3068830001,Gravesend                                                                  ,"(40.594291, -73.98577)",
KINGSBOROUGH EARLY COLLEGE SCH,K,21,SANDY:INT/HEAT/FLOOD/PIPING/NON-SANDY:PIPING/FLOOD,16343000,CIP,K400,2630 BENSON AVENUE,Brooklyn,11214,BROOKLYN ,40.594291,-73.98577,13,47,306,3186454,3068830001,Gravesend                                                                  ,"(40.594291, -73.98577)",
MIDWOOD HS - BROOKLYN,K,21,CRACKED CONCRETE STRUCTURE/FIELD HOUSE,18211000,CIP,K406,1124 EAST 17 STREET,Brooklyn,11210,BROOKLYN ,40.622641,-73.958988,14,44,768,3000000,3067260087,Midwood                                                                    ,"(40.622641, -73.958988)",
ABRAHAM LINCOLN HS - BROOKLYN,K,21,SANDY: INTERIOR/VENT/ELEC/FLOOD/ATHLETIC FIELD,38162000,CIP,K411,2800 OCEAN PARKWAY,Brooklyn,11235,BROOKLYN ,40.581681,-73.967308,13,47,354,3196293,3072540001,West Brighton                                                              ,"(40.581681, -73.967308)",
BROOKLYN TECH HS - K,K,13,LOW VOLT ELEC SYS/KITCHEN FIRE SUPRESSION SYS,4291000,CIP,K430,29 FT GREENE PLACE,Brooklyn,11217,BROOKLYN ,40.688834,-73.976905,2,35,33,3058752,3020980013,Fort Greene                                                                ,"(40.688834, -73.976905)",
PERFORMING ARTS AND TECH. HS -,K,19,FY14 RESO A GYMNASIUM UPGRADE,1032000,CIP,K435,400 PENNSYLVANIA AVENUE,Brooklyn,11207,BROOKLYN ,40.667456,-73.894747,5,42,1156,3084440,3037880001,East New York (Pennsylvania Ave)                                           ,"(40.667456, -73.894747)",
THE INTERNATIONAL HS - BROOKLY,K,17,MASONRY/WINDOWS/PARAPETS/ROOFS/FLOOD ELIMINAITON,20937000,CIP,K440,883 CLASSON AVENUE,Brooklyn,11225,BROOKLYN ,40.670349,-73.961695,9,35,213,3029686,3011870001,Crown Heights South                                                        ,"(40.670349, -73.961695)",
NEW UTRECHT HS - BROOKLYN,K,20,ATHLETIC FIELD REPAIRS,5290000,CIP,K446,1601 80 STREET,Brooklyn,11214,BROOKLYN ,40.613262,-74.003404,11,43,182,3162711,3062710001,Bensonhurst West                                                           ,"(40.613262, -74.003404)",
I.S. 382 - BROOKLYN,K,17,ELECTRICAL LIGHTING FIXTURES,1247000,CIP,K465,911 FLATBUSH AVENUE,Brooklyn,11226,BROOKLYN ,40.649787,-73.95855,14,40,794,3336215,3051030010,Erasmus                                                                    ,"(40.649787, -73.95855)",
SCIENCE TECH & RESEARCH - K,K,17,FY15 RESO A ELECTRICAL SYSTEMS,790000,CIP,K465,911 FLATBUSH AVENUE,Brooklyn,11226,BROOKLYN ,40.649787,-73.95855,14,40,794,3336215,3051030010,Erasmus                                                                    ,"(40.649787, -73.95855)",
BUSHWICK HS OF SOCIAL JUSTICE,K,32,SCHOOL BASED HEALTH CENTER,1250581.23,CIP,K480,400 IRVING AVENUE,Brooklyn,11237,BROOKLYN ,40.69697,-73.910791,4,37,435,3076908,3033650098,Bushwick North                                                             ,"(40.69697, -73.910791)",
FORT HAMILTON HS - K,K,20,FY14 RESO A AUDITORIUM UPGRADE,428018,CIP,K490,8301 SHORE ROAD,Brooklyn,11209,BROOKLYN ,40.627835,-74.040046,10,43,46,3152318,3060130001,Bay Ridge                                                                  ,"(40.627835, -74.040046)",
SHEEPSHEAD BAY HS - BROOKLYN,K,22,SCHOOL BASED HEALTH CENTER,1570000,CIP,K495,3000 AVENUE X,Brooklyn,11235,BROOKLYN ,40.594124,-73.937696,15,48,626,3203631,3074250002,Sheepshead Bay-Gerritsen Beach-Manhattan Beach                             ,"(40.594124, -73.937696)",
GEORGE WESTINGHOUSE VOC. HS,K,13,LIBRARY UPGRADE,979200,CIP,K580,105 JOHNSON STREET,Brooklyn,11201,BROOKLYN ,40.694926,-73.986015,2,33,13,3348041,3001310001,DUMBO-Vinegar Hill-Downtown Brooklyn-Boerum Hill                           ,"(40.694926, -73.986015)",
GEORGE WESTINGHOUSE VOC. HS,K,13,PARAPETS/EXTERIOR MASONRY/ROOFS/FLOOD ELIMINATION,9743000,CIP,K580,105 JOHNSON STREET,Brooklyn,11201,BROOKLYN ,40.694926,-73.986015,2,33,13,3348041,3001310001,DUMBO-Vinegar Hill-Downtown Brooklyn-Boerum Hill                           ,"(40.694926, -73.986015)",
P.S. 8 - BROOKLYN,K,13,SCIENCE LAB UPGRADES,966800,CIP,K580,105 JOHNSON STREET,Brooklyn,11201,BROOKLYN ,40.694926,-73.986015,2,33,13,3348041,3001310001,DUMBO-Vinegar Hill-Downtown Brooklyn-Boerum Hill                           ,"(40.694926, -73.986015)",
CLARA BARTON HS - K,K,17,FAILING COPING STONE/ROOFS,7064000,CIP,K600,901 CLASSON AVENUE,Brooklyn,11225,BROOKLYN ,40.669567,-73.961962,9,35,213,3029702,3011880001,Crown Heights South                                                        ,"(40.669567, -73.961962)",
AUTOMOTIVE TRADES VOC HS - K,K,14,ELECTRICAL LIGHTING FIXTURES,1231000,CIP,K610,50 BEDFORD AVENUE,Brooklyn,11222,BROOKLYN ,40.721981,-73.953281,1,33,517,3066698,3026700001,North Side-South Side                                                      ,"(40.721981, -73.953281)",
WIILIAMSBURG PREP- BROOKLYN,K,14,ROOFS/WINDOWS/PARAPETS/EXT MASONRY,11337000,CIP,K650,257 N 6TH STREET,Brooklyn,11211,BROOKLYN ,40.715073,-73.954754,1,33,519,3062135,3023300011,North Side-South Side                                                      ,"(40.715073, -73.954754)",
BROOKLYN HS OF THE ARTS - BROO,K,15,ANSUL SYS/FIRE ALARM/MECHANICAL SYS - VENTILATION,5186160,CIP,K655,345 DEAN STREET,Brooklyn,11217,BROOKLYN ,40.683559,-73.98027,2,33,39,3001190,3001920013,DUMBO-Vinegar Hill-Downtown Brooklyn-Boerum Hill                           ,"(40.683559, -73.98027)",
BROOKLYN HS OF THE ARTS - BROO,K,15,DAMAGED EXTERIOR WALLS/ROOFS,6577000,CIP,K655,345 DEAN STREET,Brooklyn,11217,BROOKLYN ,40.683559,-73.98027,2,33,39,3001190,3001920013,DUMBO-Vinegar Hill-Downtown Brooklyn-Boerum Hill                           ,"(40.683559, -73.98027)",
I.S. 340 - BROOKLYN,K,13,ELECTRICAL LIGHTING FIXTURES,283000,CIP,K874,227 STERLING PLACE,Brooklyn,11238,BROOKLYN ,40.676094,-73.97038,8,35,163,3029060,3011640057,Prospect Heights                                                           ,"(40.676094, -73.97038)",
I.S. 266 - BROOKLYN,K,13,MASONRY/PIPING/DOOR/FLOOD/WIN/PARAPETS/ROOF/HVAC,33792000,CIP,K902,62 PARK PLACE,Brooklyn,11217,BROOKLYN ,40.678983,-73.976497,6,39,12902,3259250,3009410050,Park Slope-Gowanus                                                         ,"(40.678983, -73.976497)",
P.S. 1 - MANHATTAN,M,2,RPZ VALVES/LOW VOLTAGE ELECTRICAL/ANSUL SYSTEM,1616020,CIP,M001,8 HENRY STREET,Manhattan,10038,MANHATTAN,40.71276,-73.997489,3,1,27,1003375,1002790040,Chinatown                                                                  ,"(40.71276, -73.997489)",
P.S. 5 - MANHATTAN,M,6,FIRE ALARM SYSTEM/SMOKE DAMPERS,1543000,CIP,M005,3703 TENTH AVENUE,Manhattan,10034,MANHATTAN,40.85899,-73.922894,12,10,299,1084201,1021500030,Marble Hill-Inwood                                                         ,"(40.85899, -73.922894)",
P.S. 5 - MANHATTAN,M,6,PARAPETS/ROOFS/WINDOWS,10770000,CIP,M005,3703 TENTH AVENUE,Manhattan,10034,MANHATTAN,40.85899,-73.922894,12,10,299,1084201,1021500030,Marble Hill-Inwood                                                         ,"(40.85899, -73.922894)",
FREDERICK DOUGLAS ACADEMY - M,M,5,SCIENCE LAB ACID WASTE LINES,4523000,CIP,M010,2581 7TH AVENUE,Manhattan,10039,MANHATTAN,40.824319,-73.93712,10,9,236,1060198,1020160100,Central Harlem North-Polo Grounds                                          ,"(40.824319, -73.93712)",
P.P.A.S. - MANHATTAN,M,2,FY13 RESO A ROOM CONVERSIONS / PART,480000,CIP,M017,328 WEST 48 STREET,Manhattan,10036,MANHATTAN,40.761448,-73.988019,4,3,127,1025092,1010380014,Clinton                                                                    ,"(40.761448, -73.988019)",
P.P.A.S. - MANHATTAN,M,2,MASONRY/AUD UPG/WIN/FLOOD/PARAPETS/ROOFS/FA,7315000,CIP,M017,328 WEST 48 STREET,Manhattan,10036,MANHATTAN,40.761448,-73.988019,4,3,127,1025092,1010380014,Clinton                                                                    ,"(40.761448, -73.988019)",
P.S. 40 - MANHATTAN,M,2,FY16 RESO A ROOFTOP PLAYGROUND,311000,CIP,M040,319 EAST 19 STREET,Manhattan,10003,MANHATTAN,40.735161,-73.982027,6,2,64,1020513,1009250012,Gramercy                                                                   ,"(40.735161, -73.982027)",
J.H.S. 47 (SCH FOR THE DEAF) -,M,2,PARAPETS/WINDOWS/EXTERIOR MASONRY,2654000,CIP,M047,223 EAST 23 STREET,Manhattan,10010,MANHATTAN,40.738548,-73.982455,6,2,64,,,Gramercy                                                                   ,"(40.738548, -73.982455)",
I.S. 54 - MANHATTAN,M,3,MASONRY & GRANITE STEP DEFECTS,883000,CIP,M054,103 WEST 107 STREET,Manhattan,10025,MANHATTAN,40.800119,-73.962837,7,7,193,1055990,1018620011,Morningside Heights                                                        ,"(40.800119, -73.962837)",
EASTSIDE COMMUNITY HS - M,M,1,FIFTH FLOOR CEILING REPLACEMENT,150000,CIP,M060,420 EAST 12 STREET,Manhattan,10009,MANHATTAN,40.729589,-73.982555,3,2,34,1005974,1004390017,East Village                                                               ,"(40.729589, -73.982555)",
P.S. 361 - MANHATTAN,M,1,RPZ VALVES/LOW VOLT/ELEC UPGRADE,2646000,CIP,M061,610 EAST 12 STREET,Manhattan,10009,MANHATTAN,40.727892,-73.978525,3,2,28,1079053,1003940012,Lower East Side                                                            ,"(40.727892, -73.978525)",
P.S. 63 - MANHATTAN,M,1,PARAPETS/ROOFS/FLOOD ELIMINATION/EXTERIOR MASONRY,20539600,CIP,M063,121 EAST 3 STREET,Manhattan,10009,MANHATTAN,40.724117,-73.986381,3,2,32,1005760,1004310014,East Village                                                               ,"(40.724117, -73.986381)",
P.S. 72 - MANHATTAN,M,4,PARAPETS/MASONRY/RM UPG/FLOOD/ROOF/PLAYGROUND,14061000,CIP,M072,131 EAST 104 STREET,Manhattan,10029,MANHATTAN,40.791179,-73.947776,11,8,166,1081340,1016320011,East Harlem South                                                          ,"(40.791179, -73.947776)",
P.S. 72 - MANHATTAN,M,4,SCIENCE LAB UPGRADE,718920,CIP,M072,131 EAST 104 STREET,Manhattan,10029,MANHATTAN,40.791179,-73.947776,11,8,166,1081340,1016320011,East Harlem South                                                          ,"(40.791179, -73.947776)",
P.S. 75 - MANHATTAN,M,3,PLAYNYC BOILER CONVERSION/CLIMATE CONTROL,6666000,CIP,M075,735 WEST END AVENUE,Manhattan,10025,MANHATTAN,40.795157,-73.973292,7,6,183,1034190,1012530065,Upper West Side                                                            ,"(40.795157, -73.973292)",
P.S. 75 - MANHATTAN,M,3,TEMPORARY BOILER,250000,CIP,M075,735 WEST END AVENUE,Manhattan,10025,MANHATTAN,40.795157,-73.973292,7,6,183,1034190,1012530065,Upper West Side                                                            ,"(40.795157, -73.973292)",
BARD COLLEGE HS - MANHATTAN,M,1,NON-SANDY:MASONRY/ROOF/PARAPET/SANDY:FLOOD/MASONRY,6913000,CIP,M097,525 EAST HOUSTON STREET,Manhattan,10002,MANHATTAN,40.719029,-73.975891,3,2,1002,1004062,1003250025,Lower East Side                                                            ,"(40.719029, -73.975891)",
P.S. 101 - MANHATTAN,M,4,PLANYC BOILER CNVRSN/PLANYC CLIMATE CTRL,3034000,CIP,M101,141 EAST 111 STREET,Manhattan,10029,MANHATTAN,40.79564,-73.94441,11,8,172,1081346,1016390003,East Harlem South                                                          ,"(40.79564, -73.94441)",
P.S. 102 - MANHATTAN,M,4,DEFECTIVE CONCRETE BEAM FIRE PROOFING,727000,CIP,M102,315 EAST 113 STREET,Manhattan,10029,MANHATTAN,40.794872,-73.938719,11,8,180,1081366,1016840101,East Harlem North                                                          ,"(40.794872, -73.938719)",
P.S. 108 - MANHATTAN,M,4,PLANYC BOILER/PLANC CLIMATE CTRL/LOW VOLT/KITCHEN,6384000,CIP,M108,1615 MADISON AVENUE,Manhattan,10029,MANHATTAN,40.795146,-73.948368,11,8,17401,1051584,1016140021,East Harlem South                                                          ,"(40.795146, -73.948368)",
P.S. 241 - MANHATTAN,M,3,FLOOD ELIMINATION,1337000,CIP,M113,240 WEST 113 STREET,Manhattan,10026,MANHATTAN,40.801689,-73.954908,10,9,216,1055111,1018280015,Central Harlem South                                                       ,"(40.801689, -73.954908)",
P.S. 241 - MANHATTAN,M,3,PLANYC BOILER CONVERSION/CIMATE CONTROL,4697000,CIP,M113,240 WEST 113 STREET,Manhattan,10026,MANHATTAN,40.801689,-73.954908,10,9,216,1055111,1018280015,Central Harlem South                                                       ,"(40.801689, -73.954908)",
P.S. 333 - MANHATTAN,M,3,EXTERIOR MASONRY/ROOFS/PARAPETS,11148891,CIP,M118,154 WEST 93 STREET,Manhattan,10025,MANHATTAN,40.791728,-73.970845,7,6,177,1032522,1012230005,Upper West Side                                                            ,"(40.791728, -73.970845)",
P.S. 123 - MANHATTAN,M,5,FLOOD ELIMINATION,4815000,CIP,M123,301 WEST 140 STREET,Manhattan,10030,MANHATTAN,40.819767,-73.944433,10,9,22102,1060726,1020420035,Central Harlem North-Polo Grounds                                          ,"(40.819767, -73.944433)",
P.S. 128 - MANHATTAN,M,6,PLANYC BOILER CNVSN/PLANYC CLIMATE CTRL,6790000,CIP,M128,560 WEST 169 STREET,Manhattan,10032,MANHATTAN,40.841321,-73.938506,12,10,251,1062994,1021250001,Washington Heights South                                                   ,"(40.841321, -73.938506)",
P.S. 129 - MANHATTAN,M,5,SCIENCE LAB UPGRADES,782100,CIP,M129,425 WEST 130 STREET,Manhattan,10027,MANHATTAN,40.814637,-73.951912,9,9,21703,1059407,1019570010,Manhattanville                                                             ,"(40.814637, -73.951912)",
P.S. 130 - MANHATTAN,M,2,STRUCTURAL DEFICIENCIES,1097000,CIP,M130,143 BAXTER STREET,Manhattan,10013,MANHATTAN,40.718903,-73.998438,2,1,41,1003086,1002360038,SoHo-TriBeCa-Civic Center-Little Italy                                     ,"(40.718903, -73.998438)",
P.S. 145 - MANHATTAN,M,3,PLANYC BOILER CNVSN/PLANYC CLIMATE CTRL,3073000,CIP,M145,150 WEST 105 STREET,Manhattan,10025,MANHATTAN,40.799178,-73.964842,7,7,189,1076625,1018590001,Upper West Side                                                            ,"(40.799178, -73.964842)",
P.S. 146 - MANHATTAN,M,4,PLANYC BOILER CNVRSN/PLANYC CLIMATE CTRL,3332800,CIP,M146,421 EAST 106 STREET,Manhattan,10029,MANHATTAN,40.789295,-73.939262,11,8,162,1052999,1017000001,East Harlem South                                                          ,"(40.789295, -73.939262)",
P.S. 152 - MANHATTAN,M,6,FIRE ALARM,927000,CIP,M152,93 NAGLE AVENUE,Manhattan,10040,MANHATTAN,40.860412,-73.927936,12,10,283,1064149,1021730001,Washington Heights North                                                   ,"(40.860412, -73.927936)",
P.S. 158 - MANHATTAN,M,2,MASONRY/FLOOD ELIMINATION/ROOFS/WINDOWS/PARAPETS,25859000,CIP,M158,1458 YORK AVENUE,Manhattan,10075,MANHATTAN,40.770419,-73.951135,8,5,132,1046411,1014890001,Lenox Hill-Roosevelt Island                                                ,"(40.770419, -73.951135)",
P.S. 165 - MANHATTAN,M,3,EXT MASONRY/ROOFS,6233477,CIP,M165,234 WEST 109 STREET,Manhattan,10025,MANHATTAN,40.802917,-73.965613,7,7,195,1056676,1018800013,Morningside Heights                                                        ,"(40.802917, -73.965613)",
I.S. 167 - MANHATTAN,M,2,FACADE DAMAGE/SITE WORK/FLOOD/PARAPETS/WINDOWS,6157000,CIP,M167,220 EAST 76 STREET,Manhattan,10021,MANHATTAN,40.77205,-73.958066,8,4,134,1044058,1014300005,Lenox Hill-Roosevelt Island                                                ,"(40.77205, -73.958066)",
I.S. 167 - MANHATTAN,M,2,FY15 RESO A SCIENCE LAB UPGRADES,425000,CIP,M167,220 EAST 76 STREET,Manhattan,10021,MANHATTAN,40.77205,-73.958066,8,4,134,1044058,1014300005,Lenox Hill-Roosevelt Island                                                ,"(40.77205, -73.958066)",
P.S. 183 - MANHATTAN,M,2,EXTERIOR MASONRY/FLOOD ELIMINATION/ PARAPETS/ROOFS,11870000,CIP,M183,419 EAST 66 STREET,Manhattan,10065,MANHATTAN,40.763736,-73.95815,8,5,116,1045569,1014610007,Lenox Hill-Roosevelt Island                                                ,"(40.763736, -73.95815)",
HAMILTON GRANGE MIDDLE SCHOOL,M,6,SCIENCE LAB UPGRADE,1098000,CIP,M192,500 WEST 138 STREET,Manhattan,10031,MANHATTAN,40.820953,-73.951145,9,7,22301,1084132,1019880166,Manhattanville                                                             ,"(40.820953, -73.951145)",
P.S. 132 - MANHATTAN,M,6,FUEL OIL TANK REPLACEMENT,968000,CIP,M233,601 WEST 183 STREET,Manhattan,10033,MANHATTAN,40.850592,-73.933043,12,10,271,1063959,1021650069,Washington Heights North                                                   ,"(40.850592, -73.933043)",
P.S. 234 - MANHATTAN,M,2,FY16 RESO A AUDITORIUM UPGRADE,195000,CIP,M234,292 GREENWICH STREET,Manhattan,10007,MANHATTAN,40.71602,-74.011035,1,1,21,1001533,1001420001,SoHo-TriBeCa-Civic Center-Little Italy                                     ,"(40.71602, -74.011035)",
BAYARD RUSTIN EDUCATIONAL COMP,M,2,SCIENCE LAB UPGRADE,4222000,CIP,M440,351 WEST 18 STREET,Manhattan,10011,MANHATTAN,40.742867,-74.002136,4,3,89,1013096,1007420007,Hudson Yards-Chelsea-Flatiron-Union Square                                 ,"(40.742867, -74.002136)",
SEWARD PARK H.S.,M,2,WINDOWS/PARAPETS/FLOOD/EXT MASONRY/ROOFS,18800000,CIP,M445,350 GRAND STREET,Manhattan,10002,MANHATTAN,40.716778,-73.989337,3,1,18,1005283,1004080030,Chinatown                                                                  ,"(40.716778, -73.989337)",
UNIVERSITY NEIGHBORHOOD HS - M,M,1,FIRE ALARM/VENTILATION,3780000,CIP,M446,200 MONROE STREET,Manhattan,10002,MANHATTAN,40.712399,-73.984497,3,1,202,1003214,1002590044,Lower East Side                                                            ,"(40.712399, -73.984497)",
GRAMERCY ARTS HS - MANHATTAN,M,2,ELECTRICAL SYSTEMS/PA SYSTEM,6221001,CIP,M460,40 IRVING PLACE,Manhattan,10003,MANHATTAN,40.735494,-73.987659,6,2,50,1017828,1008720057,Gramercy                                                                   ,"(40.735494, -73.987659)",
WASHINGTON IRVING H.S.,M,2,WATER STORAGE TANK,1189512,CIP,M460,40 IRVING PLACE,Manhattan,10003,MANHATTAN,40.735494,-73.987659,6,2,50,1017828,1008720057,Gramercy                                                                   ,"(40.735494, -73.987659)",
WASHINGTON IRVING HS - MANHATT,M,2,EXT. MASONRY/ROOF/PARAPET/ FLOOD ELIM./WINDOWS/GYM,43221000,CIP,M460,40 IRVING PLACE,Manhattan,10003,MANHATTAN,40.735494,-73.987659,6,2,50,1017828,1008720057,Gramercy                                                                   ,"(40.735494, -73.987659)",
JULIA RICHMAN H.S.,M,2,LL 41-16 COMPLIANCE,38865.86,CIP,M480,317 EAST 67 STREET,Manhattan,10065,MANHATTAN,40.765359,-73.960059,8,5,118,1083343,1014420001,Lenox Hill-Roosevelt Island                                                ,"(40.765359, -73.960059)",
BERGTRAUM HS - MANHATTAN,M,2,LIBRARY UPGRADE,2295000,CIP,M520,411 PEARL STREET,Manhattan,10038,MANHATTAN,40.711442,-74.000851,1,1,29,1001388,1001130100,Chinatown                                                                  ,"(40.711442, -74.000851)",
FOOD AND FINANCE HS - MANHATTA,M,2,FY11 RESO A ROOFS,1994000,CIP,M535,525 WEST 50 STREET,Manhattan,10019,MANHATTAN,40.765184,-73.992953,4,3,135,1083802,1010790029,Clinton                                                                    ,"(40.765184, -73.992953)",
PARK WEST H. S. (ECF),M,2,C OF O/C OF O VENT/WATER PLANT/BOILER/ENERGY MGMT,23313000,CIP,M535,525 WEST 50 STREET,Manhattan,10019,MANHATTAN,40.765184,-73.992953,4,3,135,1083802,1010790029,Clinton                                                                    ,"(40.765184, -73.992953)",
A. PHILIP RANDOLPH HS -MANHATT,M,6,LIGHTING REPLACEMENT,1151999,CIP,M540,443 WEST 135 STREET,Manhattan,10031,MANHATTAN,40.818188,-73.950356,9,9,21703,1059409,1019570078,Manhattanville                                                             ,"(40.818188, -73.950356)",
FASHION INDUSTRIES VOC HS - M,M,2,ACCESSIBILITY,3300000,CIP,M600,225 WEST 24 STREET,Manhattan,10011,MANHATTAN,40.745156,-73.996074,4,3,91,1014174,1007740019,Hudson Yards-Chelsea-Flatiron-Union Square                                 ,"(40.745156, -73.996074)",
CHELSEA VOC HS - MANHATTAN,M,2,LOW VOLTAGE ELECTRICAL SYSTEM/ANSUL SYSTEM,2314098,CIP,M615,131 AVE OF THE AMERICAS,Manhattan,10013,MANHATTAN,40.7244,-74.004625,2,3,37,1007378,1004910016,SoHo-TriBeCa-Civic Center-Little Italy                                     ,"(40.7244, -74.004625)",
HS OF GRAPHIC COMM. ARTS (VOC),M,2,PLANYC BOILERS CONVERSION/CLIMATE CONTROL,8627000,CIP,M625,439 WEST 49 STREET,Manhattan,10019,MANHATTAN,40.76337,-73.990593,4,3,127,1026646,1010590015,Clinton                                                                    ,"(40.76337, -73.990593)",
M721 SPED - MANHATTAN,M,2,REINFORCE CINDER/FLOORS/ACCESSIBLITY/ELEC UPG/FA,6142800,CIP,M641,16 CLARKSON STREET,Manhattan,10014,MANHATTAN,40.729412,-74.006148,2,3,67,1009757,1005810054,West Village                                                               ,"(40.729412, -74.006148)",
I.S. 348 - MANHATTAN,M,6,FY16 RESO A PLAYGROUND UPGRADE,298786,CIP,M859,512 WEST 182 STREET,Manhattan,10033,MANHATTAN,40.848925,-73.931028,12,10,269,1063699,1021550006,Washington Heights North                                                   ,"(40.848925, -73.931028)",
P.S. 2 - QUEENS,Q,30,FY15 RESO A ACCESSIBILITY,507657,CIP,Q002,75-10 21 AVENUE,Queens,11370,QUEENS   ,40.770335,-73.894476,1,22,317,4021375,4009710001,Steinway                                                                   ,"(40.770335, -73.894476)",
I.S. 5 - QUEENS,Q,24,HVAC/PUBLIC ADDRESS SYSTEM,4710000,CIP,Q005,50-40 JACOBUS STREET,Queens,11373,QUEENS   ,40.737718,-73.887429,4,25,489,4454423,4024500017,Elmhurst-Maspeth                                                           ,"(40.737718, -73.887429)",
P.S. 12 - QUEENS,Q,24,BOILER REPLACE/ELEC SWITCH UPG/PLANYC CLIMATE CTRL,5887000,CIP,Q012,42-00 72 STREET,Queens,11377,QUEENS   ,40.742633,-73.892805,2,26,483,4031853,4013490028,Elmhurst-Maspeth                                                           ,"(40.742633, -73.892805)",
P.S. 14 - QUEENS,Q,24,ROOFS/PARAPETS/EXT MASONRY,10068000,CIP,Q014,107-01 OTIS AVENUE,Queens,11368,QUEENS   ,40.74056,-73.854131,4,21,439,4437311,4019540037,Corona                                                                     ,"(40.74056, -73.854131)",
QUEENS ACADEMY HIGH SCHOOL - Q,Q,25,TOILETS-STUDENT,887333,CIP,Q023,138-11 35 AVENUE,Queens,11354,QUEENS   ,40.765162,-73.8288,7,20,88901,4112106,4049560055,Flushing                                                                   ,"(40.765162, -73.8288)",
QUEENS ACADEMY HIGH SCHOOL - Q,Q,25,WATER PENETRATION/EXT MASONRY/ROOFS,1450000,CIP,Q023,138-11 35 AVENUE,Queens,11354,QUEENS   ,40.765162,-73.8288,7,20,88901,4112106,4049560055,Flushing                                                                   ,"(40.765162, -73.8288)",
P.S. 26 - QUEENS,Q,26,FY15 RESO A LOW-VOLTAGE ELECTRICAL SYSTEM,536250,CIP,Q026,195-02 69 AVENUE,Queens,11365,QUEENS   ,40.736922,-73.77799,8,23,1347,4153296,4071170421,Fresh Meadows-Utopia                                                       ,"(40.736922, -73.77799)",
P.S. 354 - QUEENS,Q,28,DEFECTIVE PARAPET WALL/ROOFS/EXT MASONRY,5977000,CIP,Q030,126-10 BEDELL STREET,Queens,11434,QUEENS   ,40.68031,-73.774432,12,28,33402,4270045,4124950065,Springfield Gardens North                                                  ,"(40.68031, -73.774432)",
P.S. 32 - QUEENS,Q,25,FY15 RESO A AUDITORIUM UPGRADE,365696,CIP,Q032,171-11 35 AVENUE,Queens,11358,QUEENS   ,40.764763,-73.794683,7,19,1141,4118954,4052560001,Murray Hill                                                                ,"(40.764763, -73.794683)",
P.S. 33 - QUEENS,Q,29,ROOF REPAIR/PARAPETS/EXTERIOR MASONRY,8860557,CIP,Q033,91-37 222 STREET,Queens,11428,QUEENS   ,40.727134,-73.735077,13,23,560,4230589,4107560001,Queens Village                                                             ,"(40.727134, -73.735077)",
P.S. 42 - QUEENS,Q,27,SANDY:INT/HEATING/FLOOD/CLIMATE/PIPING/HVAC/ELEC,15125767,CIP,Q042,488 BEACH 66 STREET,Queens,11692,QUEENS   ,40.594538,-73.795304,14,31,964,4302817,4160390014,Hammels-Arverne-Edgemere                                                   ,"(40.594538, -73.795304)",
P.S. 43 - QUEENS,Q,27,SANDY- ELEVATOR REPAIR,412810,CIP,Q043,160 BEACH 29TH STREET,Queens,11691,QUEENS   ,40.593834,-73.76174,14,31,99802,4467711,4158200001,Far Rockaway-Bayswater                                                     ,"(40.593834, -73.76174)",
P.S. 43 - QUEENS,Q,27,SANDY-INTERIOR/HEATING/FLOOD/SHINGLE ROOF/CLIMATE,15000000,CIP,Q043,160 BEACH 29TH STREET,Queens,11691,QUEENS   ,40.593834,-73.76174,14,31,99802,4467711,4158200001,Far Rockaway-Bayswater                                                     ,"(40.593834, -73.76174)",
P.S. 45 - QUEENS,Q,27,FY15 RESO A AUDITORIUM UPGRADE,188000,CIP,Q045,126-28 150 STREET,Queens,11436,QUEENS   ,40.672727,-73.788164,12,28,788,4262725,4121040001,Baisley Park                                                               ,"(40.672727, -73.788164)",
P.S. 52 - QUEENS,Q,29,ELECTRICAL LIGHTING FIXTURES,657500,CIP,Q052,178-37 146 TERRACE,Queens,11434,QUEENS   ,40.661122,-73.766733,13,31,320,4285972,4133530020,Springfield Gardens South-Brookville                                       ,"(40.661122, -73.766733)",
P.S. 52 - QUEENS,Q,29,TCU REMOVAL & PLAYGROUND REDEVELOPMENT,923949,CIP,Q052,178-37 146 TERRACE,Queens,11434,QUEENS   ,40.661122,-73.766733,13,31,320,4285972,4133530020,Springfield Gardens South-Brookville                                       ,"(40.661122, -73.766733)",
P.S. 63 - QUEENS,Q,27,FY15 RESO A AUDITORIUM UPGRADE,331000,CIP,Q063,90-15 SUTTER AVENUE,Queens,11417,QUEENS   ,40.67641,-73.846773,10,32,54,4190727,4091550025,Ozone Park                                                                 ,"(40.67641, -73.846773)",
P.S. 63 - QUEENS,Q,27,WATER PENETRATION/EXT MASONRY/PARAPETS/ROOFS,4368000,CIP,Q063,90-15 SUTTER AVENUE,Queens,11417,QUEENS   ,40.67641,-73.846773,10,32,54,4190727,4091550025,Ozone Park                                                                 ,"(40.67641, -73.846773)",
P.S. 64 - QUEENS,Q,27,FY16 RESO A AUDITORIUM,229777,CIP,Q064,82-01 101 AVENUE,Queens,11416,QUEENS   ,40.681172,-73.856918,9,32,42,4188214,4090530014,Woodhaven                                                                  ,"(40.681172, -73.856918)",
J.H.S. 72 - QUEENS,Q,28,FY13 RESO A PLAYGROUND REDEVELOPMENT,2277000,CIP,Q072,133-25 GUY R BREWER BOULEVARD,Queens,11434,QUEENS   ,40.673769,-73.775951,12,28,33402,4270059,4124950270,Springfield Gardens North                                                  ,"(40.673769, -73.775951)",
I.S. 73 - QUEENS,Q,24,LOW VOLT ELECTRICAL SYSTEMS,925000,CIP,Q073,70-02 54 AVENUE,Queens,11378,QUEENS   ,40.729215,-73.893624,5,30,49302,4058611,4025030031,Maspeth                                                                    ,"(40.729215, -73.893624)",
I.S. 74 - QUEENS,Q,26,FY16 RESO A AUDITORIUM UPGRADE,192500,CIP,Q074,61-15 OCEANIA STREET,Queens,11364,QUEENS   ,40.745201,-73.767446,11,23,1367,4163953,4077230001,Oakland Gardens                                                            ,"(40.745201, -73.767446)",
Q075 SPED - QUEENS,Q,24,PLANYC BOILER CNVRSN/PLANYC CLIMATE CTRL,4596000,CIP,Q075,16-66 HANCOCK STREET,Queens,11385,QUEENS   ,40.698476,-73.905556,5,34,553,4085584,4035490044,Ridgewood                                                                  ,"(40.698476, -73.905556)",
P.S. 79 - QUEENS,Q,25,RPZ VALVE,377000,CIP,Q079,147-27 15 DRIVE,Queens,11357,QUEENS   ,40.785909,-73.818058,7,19,1039,4105232,4046470001,Whitestone                                                                 ,"(40.785909, -73.818058)",
P.S. 85 - QUEENS,Q,30,RPZ VALVES/LOW VOLTAGE/ELECTRICAL UPG,1658786,CIP,Q085,23-70 31 STREET,Queens,11105,QUEENS   ,40.772863,-73.914708,1,22,115,4017485,4008420031,Steinway                                                                   ,"(40.772863, -73.914708)",
P.S. 98 - QUEENS,Q,26,WATER PENETRATION,549000,CIP,Q098,40-20 235 STREET,Queens,11363,QUEENS   ,40.769271,-73.749369,11,19,1483,4168629,4080820285,Douglas Manor-Douglaston-Little Neck                                       ,"(40.769271, -73.749369)",
P.S. 101 - QUEENS,Q,28,FY15 RESO A AUDITORIUM UPGRADE,459000,CIP,Q101,2 RUSSELL PLACE,Queens,11375,QUEENS   ,40.715585,-73.843898,6,29,723,4078312,4032700001,Forest Hills                                                               ,"(40.715585, -73.843898)",
P.S. 102 - QUEENS,Q,24,ADA UPGRADE,2777000,CIP,Q102,55-24 VAN HORN STREET,Queens,11373,QUEENS   ,40.733514,-73.877857,4,25,479,4437597,4028790031,Elmhurst-Maspeth                                                           ,"(40.733514, -73.877857)",
P.S. 105 - QUEENS,Q,27,SANDY:HEATING/ELEC/FLOOD/AUD/PIPING/HVAC/INT/PAVED,21198000,CIP,Q105,420 BEACH 51 STREET,Queens,11691,QUEENS   ,40.595779,-73.781876,14,31,97203,4302397,4159740003,Hammels-Arverne-Edgemere                                                   ,"(40.595779, -73.781876)",
P.S. 114 - QUEENS,Q,27,SANDY:INT/HEATING/ELEC/FLOOD/CLIM/PLAYGRND/PIPING,14780000,CIP,Q114,134-01 CRONSTON AVE,Queens,11694,QUEENS   ,40.578261,-73.854403,14,32,928,4305615,4162570001,Breezy Point-Belle Harbor-Rockaway Park-Broad Channel                      ,"(40.578261, -73.854403)",
P.S. 115 - QUEENS,Q,26,PLANYC BOILER CNVRSN/PLANYC CLIMATE CTRL,5544000,CIP,Q115,80-51 261 STREET,Queens,11004,QUEENS   ,40.744099,-73.709845,13,23,157902,4178127,4087170001,Glen Oaks-Floral Park-New Hyde Park                                        ,"(40.744099, -73.709845)",
P.S. 116 - QUEENS,Q,29,EXT MASONRY/ROOFS/CONCRETE ROOF DECK/PARAPETS,8800000,CIP,Q116,107-25 WREN PLACE,Queens,11433,QUEENS   ,40.700606,-73.782302,12,27,414,4218416,4102500001,South Jamaica                                                              ,"(40.700606, -73.782302)",
P.S. 121 - QUEENS,Q,28,TCU REMOVAL & PLAYGROUND REDEVELOPMENT,968100,CIP,Q121,126-10 109 AVENUE,Queens,11420,QUEENS   ,40.68405,-73.815834,10,28,170,4249769,4116070001,South Ozone Park                                                           ,"(40.68405, -73.815834)",
P.S. 123 - QUEENS,Q,27,TCU REMOVAL & PLAYGROUND REDEVELOPMENT,1082000,CIP,Q123,145-01 119 AVENUE,Queens,11436,QUEENS   ,40.678296,-73.79562,12,28,18402,4260828,4120190010,Baisley Park                                                               ,"(40.678296, -73.79562)",
I.S. 126 - QUEENS,Q,30,FY16 RESO A PLAYGROUND REDEVELOPMENT,172250,CIP,Q126,31-51 21 STREET,Queens,11106,QUEENS   ,40.766264,-73.930709,1,22,77,4006382,4005530001,Astoria                                                                    ,"(40.766264, -73.930709)",
P.S. 139 - QUEENS,Q,28,WATER PENETRATION/ROOFS,1456000,CIP,Q139,93-06 63 DRIVE,Queens,11374,QUEENS   ,40.72814,-73.863582,6,29,693,4072457,4030950050,Rego Park                                                                  ,"(40.72814, -73.863582)",
Q752 SPED - QUEENS,Q,28,ELECTRICAL LIGHTING FIXTURES,991000,CIP,Q142,142-10 LINDEN BLVD,Queens,11436,QUEENS   ,40.684142,-73.801479,12,28,192,4259200,4119720070,Baisley Park                                                               ,"(40.684142, -73.801479)",
I.S. 145 - QUEENS,Q,30,PLANYC BOILER CNVRSN/PLANYC CLIMATE CTRL,8497000,CIP,Q145,33-34 80 STREET,Queens,11372,QUEENS   ,40.754661,-73.887112,3,25,285,4442764,4012520001,Jackson Heights                                                            ,"(40.754661, -73.887112)",
P.S. 151 - QUEENS,Q,30,WATER INFILTRATION/ROOFS/PARAPETS/EXT MASONRY,5182000,CIP,Q151,50-05 31 AVENUE,Queens,11377,QUEENS   ,40.757499,-73.908898,1,22,163,4014094,4007520001,Astoria                                                                    ,"(40.757499, -73.908898)",
J.H.S. 157 - QUEENS,Q,28,FY16 RESO A ROOM CONVERSIONS / PART,229500,CIP,Q157,63-55 102ND STREET,Queens,11374,QUEENS   ,40.732289,-73.853825,6,29,721,4442846,4021260014,Forest Hills                                                               ,"(40.732289, -73.853825)",
P.S. 160 - QUEENS,Q,28,CHIMNEY/ROOFS/PARAPETS/FLOOD,9370000,CIP,Q160,109-59 INWOOD STREET,Queens,11435,QUEENS   ,40.688103,-73.800415,12,28,196,4258143,4119420302,South Jamaica                                                              ,"(40.688103, -73.800415)",
P.S. 162 - QUEENS,Q,26,PARAPET/FLOOD ELIMINATION/EXT MASONRY/ROOFING,8630000,CIP,Q162,201-02 53 AVENUE,Queens,11364,QUEENS   ,40.749036,-73.777213,11,20,140901,4159363,4074100001,Bayside-Bayside Hills                                                      ,"(40.749036, -73.777213)",
P.S. 169 - QUEENS,Q,25,WATER PENETRATION,590000,CIP,Q169,18-25 212 STREET,Queens,11360,QUEENS   ,40.782298,-73.779099,7,19,99704,4131147,4058650050,Ft. Totten-Bay Terrace-Clearview                                           ,"(40.782298, -73.779099)",
P.S. 174 - QUEENS,Q,28,FY16 RESO A ROOM CONV/FY16 RESO A SCIENCE LAB UPG,351000,CIP,Q174,65-10 DIETERLE CRESCENT,Queens,11374,QUEENS   ,40.720924,-73.86135,6,29,69702,4073904,4031340024,Rego Park                                                                  ,"(40.720924, -73.86135)",
Q177 SPED - QUEENS,Q,26,PLANYC BOILER CONVERSION/PLANYC CLIMATE CONTROL,7221000,CIP,Q177,56-37 188 STREET,Queens,11365,QUEENS   ,40.74391,-73.788133,11,20,1417,4128231,4056740002,Auburndale                                                                 ,"(40.74391, -73.788133)",
THE SCHOLARS ACADEMY - QUEENS,Q,27,SANDY:AC/FLOOD/ELEC/HEAT/INTER/NON-SANDY:CLIM CTRL,13563283,CIP,Q180,320 BEACH 104 STREET,Queens,11694,QUEENS   ,40.584109,-73.825711,14,32,938,4303722,4161590012,Breezy Point-Belle Harbor-Rockaway Park-Broad Channel                      ,"(40.584109, -73.825711)",
P.S. 181 - QUEENS,Q,29,FLOORS & WALLS/ROOFS/PARAPETS/EXT MASONRY/FLOOD,4848000,CIP,Q181,148-15 230 STREET,Queens,11413,QUEENS   ,40.656126,-73.753207,13,31,694,4291453,4137180001,Springfield Gardens South-Brookville                                       ,"(40.656126, -73.753207)",
P.S. 184 - QUEENS,Q,25,PLANYC BOILER CNVRSN/PLANYC CLIMATE CTRL,5631800,CIP,Q184,163-15 21 ROAD,Queens,11357,QUEENS   ,40.778095,-73.800163,7,19,1017,4129072,4057560001,Ft. Totten-Bay Terrace-Clearview                                           ,"(40.778095, -73.800163)",
THE FLUSHING INTERNATIONAL HS,Q,25,FY14 RESO A ROOM CONVERSIONS/PART,387500,CIP,Q189,144-80 BARCLAY AVENUE,Queens,11355,QUEENS   ,40.759844,-73.820548,7,20,863,4114763,4050510027,Murray Hill                                                                ,"(40.759844, -73.820548)",
J.H.S. 190 - QUEENS,Q,28,FY15 RESO A ROOM CONVERSIONS/PARITTIONING,304000,CIP,Q190,68-17 AUSTIN STREET,Queens,11375,QUEENS   ,40.722707,-73.851699,6,29,71305,4075214,4031720002,Forest Hills                                                               ,"(40.722707, -73.851699)",
P.S. 191 - QUEENS,Q,26,LIGHTING REPLACEMENT,579750,CIP,Q191,85-15 258 STREET,Queens,11001,QUEENS   ,40.734318,-73.709137,13,23,157903,4180083,4088010014,Glen Oaks-Floral Park-New Hyde Park                                        ,"(40.734318, -73.709137)",
P.S. 193 - QUEENS,Q,25,WATER PENETRATION,737000,CIP,Q193,152-20 11 AVENUE,Queens,11357,QUEENS   ,40.792483,-73.809741,7,19,987,4103056,4045380001,Whitestone                                                                 ,"(40.792483, -73.809741)",
J.H.S. 194 - QUEENS,Q,25,FY16 RESO A LIBRARY UPGRADE,239900,CIP,Q194,154-60 17 AVENUE,Queens,11357,QUEENS   ,40.78365,-73.807838,7,19,1029,4107342,4047290001,Whitestone                                                                 ,"(40.78365, -73.807838)",
J.H.S. 194 - QUEENS,Q,25,PLANYC BOILER CNVRSN/PLANYC CLIMATE CTRL,6795000,CIP,Q194,154-60 17 AVENUE,Queens,11357,QUEENS   ,40.78365,-73.807838,7,19,1029,4107342,4047290001,Whitestone                                                                 ,"(40.78365, -73.807838)",
P.S. 196 - QUEENS,Q,28,FY12 RESO A AUDITORIUM UPGRADE,999786,CIP,Q196,71-25 113 STREET,Queens,11375,QUEENS   ,40.722782,-73.837946,6,29,75702,4052713,4022480100,Forest Hills                                                               ,"(40.722782, -73.837946)",
P.S. 333 - QUEENS,Q,27,NEW A/C CHILLERS,1278870.32,CIP,Q198,3-65 BEACH 56 STREET,Queens,11692,QUEENS   ,40.593967,-73.786182,14,31,97204,4301929,4158940011,Hammels-Arverne-Edgemere                                                   ,"(40.593967, -73.786182)",
P.S. 333 - QUEENS,Q,27,REINFORCING/HEATING PLT/ELEC/FLOOD ELIM/CLIMATE CO,12990000,CIP,Q198,3-65 BEACH 56 STREET,Queens,11692,QUEENS   ,40.593967,-73.786182,14,31,97204,4301929,4158940011,Hammels-Arverne-Edgemere                                                   ,"(40.593967, -73.786182)",
P.S. 205 - QUEENS,Q,26,LIGHTING REPLACEMENT,790797,CIP,Q205,75-25 BELL BLVD,Queens,11364,QUEENS   ,40.737678,-73.756791,11,23,129103,4164007,4077530001,Oakland Gardens                                                            ,"(40.737678, -73.756791)",
P.S. 214 - QUEENS,Q,25,PARAPETS/FLOOD/EXT MASONRY/ROOFS,6786000,CIP,Q214,31-15 140 STREET,Queens,11354,QUEENS   ,40.770387,-73.828617,7,20,88901,4100846,4044130020,Flushing                                                                   ,"(40.770387, -73.828617)",
P.S. 215 - QUEENS,Q,27,FIRE ALARM,1213000,CIP,Q215,535 BRIAR PLACE,Queens,11691,QUEENS   ,40.5993,-73.758206,14,31,99801,4301194,4157720031,Far Rockaway-Bayswater                                                     ,"(40.5993, -73.758206)",
I.S. 217 - QUEENS,Q,28,FY15 RESO A SCIENCE LAB UPGRADE,417473,CIP,Q217,85-05 144 STREET,Queens,11435,QUEENS   ,40.710024,-73.812508,8,24,232,4208124,4097240173,Briarwood-Jamaica Hills                                                    ,"(40.710024, -73.812508)",
P.S. 223 - QUEENS,Q,27,WINDOWS/EXT MASONRY/PARAPETS,4565000,CIP,Q223,125-20 SUTPHIN BLVD,Queens,11434,QUEENS   ,40.674519,-73.789399,12,28,18401,4261713,4120510001,Baisley Park                                                               ,"(40.674519, -73.789399)",
P.S. 317 - QUEENS,Q,27,SANDY: HEAT/FLOOD/ELEC/INTERIOR/NON-SANDY: CLIMATE,6339000,CIP,Q225,1-90 BEACH 110 STREET,Queens,11694,QUEENS   ,40.580928,-73.831836,14,32,938,4303853,4161810001,Breezy Point-Belle Harbor-Rockaway Park-Broad Channel                      ,"(40.580928, -73.831836)",
I.S. 226 - QUEENS,Q,27,PUBLIC ADDRESS SYSTEM,1054000,CIP,Q226,121-10 ROCKAWAY BOULEVARD,Queens,11420,QUEENS   ,40.675771,-73.816938,10,28,840,4253607,4117140100,South Ozone Park                                                           ,"(40.675771, -73.816938)",
I.S. 226 - QUEENS,Q,27,TCU REMOVAL AND PLAYGROUND REDEVELOPMENT,3960000,CIP,Q226,121-10 ROCKAWAY BOULEVARD,Queens,11420,QUEENS   ,40.675771,-73.816938,10,28,840,4253607,4117140100,South Ozone Park                                                           ,"(40.675771, -73.816938)",
P.S. 242 - QUEENS,Q,25,FLOOD ELIMINATION/ROOFING,983000,CIP,Q242,29-66 137TH STREET,Queens,11354,QUEENS   ,40.771265,-73.831525,7,20,88901,4462993,4043710173,Flushing                                                                   ,"(40.771265, -73.831525)",
P.S. / I.S. 270 - QUEENS,Q,29,DEFECTIVE PARAPETS/EXT MASONRY/ROOFS,5347000,CIP,Q270,233-15 MERRICK BLVD,Queens,11422,QUEENS   ,40.674831,-73.736713,13,31,618,4529511,4129730001,Laurelton                                                                  ,"(40.674831, -73.736713)",
AUGUST MARTIN HS - QUEENS,Q,27,RENEWAL SCHOOL BASED HEALTH CENTER,1682000,CIP,Q400,156-10 BAISLEY BLVD,Queens,11434,QUEENS   ,40.675633,-73.783342,12,28,294,4265978,4122610001,Springfield Gardens North                                                  ,"(40.675633, -73.783342)",
BAYSIDE HIGH SCHOOL - QUEENS,Q,26,TCU REMOVAL/PLAYGROUND REDEVELOPMENT,853000,CIP,Q405,32-24 CORPORAL KENNEDY STREET,Queens,11361,QUEENS   ,40.771755,-73.780296,11,19,1097,4134578,4060440001,Bayside-Bayside Hills                                                      ,"(40.771755, -73.780296)",
BEACH CHANNEL HS - QUEENS,Q,27,SANDY FIRE ALARM/SANDY PA SYSTEM,8947000,CIP,Q410,100-00 BEACH CHANNEL DRIVE,Queens,11694,QUEENS   ,40.586066,-73.822624,14,32,94201,4303773,4161670099,Breezy Point-Belle Harbor-Rockaway Park-Broad Channel                      ,"(40.586066, -73.822624)",
BEACH CHANNEL HS - QUEENS,Q,27,SANDY:HEATING/ELEC/FLOOD/CLIMATE/PIPING/INT/GENERA,22190800,CIP,Q410,100-00 BEACH CHANNEL DRIVE,Queens,11694,QUEENS   ,40.586066,-73.822624,14,32,94201,4303773,4161670099,Breezy Point-Belle Harbor-Rockaway Park-Broad Channel                      ,"(40.586066, -73.822624)",
BEACH CHANNEL HS - QUEENS,Q,27,SANDY REPAIRS-ATHLETIC FIELD,2997608.56,CIP,Q411,100-00 BEACH CHANNEL DRIVE,Queens,11694,QUEENS   ,40.586066,-73.822624,14,32,94201,4303773,4161670099,Breezy Point-Belle Harbor-Rockaway Park-Broad Channel                      ,"(40.586066, -73.822624)",
BENJAMIN N. CARDOZO HS - QUEEN,Q,26,ATHLETIC FIELDS/TCU REMOVAL & PLAYGROUND REDEVELOP,7897628,CIP,Q415,57-00 223 STREET,Queens,11364,QUEENS   ,40.752333,-73.75599,11,23,138501,4161735,4075290001,Oakland Gardens                                                            ,"(40.752333, -73.75599)",
BENJAMIN N. CARDOZO HS - QUEEN,Q,26,WATER PENETRATION THROUGH FOUNDATION,336289,CIP,Q415,57-00 223 STREET,Queens,11364,QUEENS   ,40.752333,-73.75599,11,23,138501,4161735,4075290001,Oakland Gardens                                                            ,"(40.752333, -73.75599)",
EXCELSIOR PREP HIGH SCHOOL - Q,Q,29,EXT MASONRY/ROOFS/PAVED AREA-CONCRETE,6980000,CIP,Q420,143-10 SPRINGFIELD BLVD,Queens,11413,QUEENS   ,40.668235,-73.756839,12,31,330,4280845,4130570056,Springfield Gardens North                                                  ,"(40.668235, -73.756839)",
PREPARATORY ACADEMY FOR WRITER,Q,29,REPAVING PARKING LOT,8743648,CIP,Q421,143-10 SPRINGFIELD BLVD,Queens,11413,QUEENS   ,40.668235,-73.756839,12,31,330,4280845,4130570056,Springfield Gardens North                                                  ,"(40.668235, -73.756839)",
FRANCIS LEWIS HS - QUEENS,Q,26,WATER PENETRATION,1469000,CIP,Q430,58-20 UTOPIA PKWY,Queens,11365,QUEENS   ,40.740724,-73.79283,11,20,1417,4148763,4068820001,Auburndale                                                                 ,"(40.740724, -73.79283)",
FOREST HILLS H.S.,Q,28,CONCRETE PAVED AREAS,3463000,CIP,Q440,67-01 110 STREET,Queens,11375,QUEENS   ,40.729402,-73.845637,6,29,747,4052143,4021890002,Forest Hills                                                               ,"(40.729402, -73.845637)",
FOREST HILLS HS - QUEENS,Q,28,CONCRETE RETAINING WALL,6484000,CIP,Q441,67-01 110 STREET,Queens,11375,QUEENS   ,40.729402,-73.845637,6,29,747,4052143,4021890002,Forest Hills                                                               ,"(40.729402, -73.845637)",
WILLIAM C. BRYANT HS - QUEENS,Q,30,TCU REMOVAL & PLAYGROUND REDEVELOPMENT,2499000,CIP,Q445,48-10 31 AVENUE,Queens,11103,QUEENS   ,40.75823,-73.910514,1,26,163,4013655,4007380002,Astoria                                                                    ,"(40.75823, -73.910514)",
LONG ISLAND CITY HS - Q,Q,30,FIRE ALARM SYSTEM/BUILDING MGMT SYSTEM,18432800,CIP,Q452,14-30 BROADWAY,Queens,11106,QUEENS   ,40.765826,-73.9328,1,22,45,4467709,4005290002,Astoria                                                                    ,"(40.765826, -73.9328)",
FLUSHING HS - QUEENS,Q,25,FY15 RESO A AUDITORIUM UPGRADE,451000,CIP,Q460,35-01 UNION STREET,Queens,11354,QUEENS   ,40.765166,-73.82789,7,20,1161,4113172,4050020001,Flushing                                                                   ,"(40.765166, -73.82789)",
AVIATION HS - QUEENS,Q,24,FUEL FIRE/ROOFS/PARAPETS/MASONRY/FLOOD/GYM UPG/WIN,17941252,CIP,Q610,45-30 36 STREET,Queens,11101,QUEENS   ,40.743509,-73.929076,2,26,179,4436685,4002260001,Hunters Point-Sunnyside-West Maspeth                                       ,"(40.743509, -73.929076)",
AVIATION HS - QUEENS,Q,24,FY16 RESO A ROOM CONVERSIONS / PART,146000,CIP,Q610,45-30 36 STREET,Queens,11101,QUEENS   ,40.743509,-73.929076,2,26,179,4436685,4002260001,Hunters Point-Sunnyside-West Maspeth                                       ,"(40.743509, -73.929076)",
P.S. 16 - QUEENS,Q,24,FY15 RESO A AUDITORIUM UPGRADE,378700,CIP,Q721,41-15 104 STREET,Queens,11368,QUEENS   ,40.748987,-73.86123,4,21,403,4048820,4019850001,North Corona                                                               ,"(40.748987, -73.86123)",
Q721 SPED - QUEENS,Q,24,FY16 RESO A AUDITORIUM UPGRADE,160113,CIP,Q722,57-12 94TH STREET,Queens,11373,QUEENS   ,40.736003,-73.867478,4,25,683,4462647,4018730050,Elmhurst                                                                   ,"(40.736003, -73.867478)",
P.S. 106 - QUEENS,Q,27,DEMOLITION & PAVED AREA/TCU REMOVAL PLAYGROUND RED,2482000,CIP,Q806,180 BEACH 35 STREET,Queens,11691,QUEENS   ,40.593779,-73.767199,14,31,992,4441244,4158610035,Hammels-Arverne-Edgemere                                                   ,"(40.593779, -73.767199)",
Q811 SPED - QUEENS,Q,26,LL 41/16 COMPLIANCE,747000,CIP,Q811,61-25 MARATHON PKWY,Queens,11362,QUEENS   ,40.756778,-73.729487,11,23,152902,4173060,4083610001,Douglas Manor-Douglaston-Little Neck                                       ,"(40.756778, -73.729487)",
P.S. 65 - QUEENS,Q,27,FY16RESO A LIBRARY UPGRADE,497898,CIP,Q884,103-22 99TH STREET,Queens,11417,QUEENS   ,40.68259,-73.841202,10,32,4002,4438525,4091210011,Ozone Park                                                                 ,"(40.68259, -73.841202)",
P.S. 43 - QUEENS,Q,27,SANDY INTERIOR SPACES/SANDY FLOOD ELIMINATION,3290000,CIP,Q907,12 MARVIN STREET,Queens,11691,QUEENS   ,40.59359,-73.760448,14,31,99802,4531136,4158190148,Far Rockaway-Bayswater                                                     ,"(40.59359, -73.760448)",
P.S. 1 - STATEN ISLAND,R,31,EXTERIOR MASONRY/PARAPETS/ROOFS/WINDOWS,11891000,CIP,R001,58 SUMMIT STREET,Staten Island,10307,STATEN IS,40.509037,-74.244118,3,51,24401,5107854,5078980001,Charleston-Richmond Valley-Tottenville                                     ,"(40.509037, -74.244118)",
I.S. 7 - STATEN ISLAND,R,31,FY16 RESO A ROOM CONVERSIONS / PART,212500,CIP,R007,1270 HUGUENOT AVENUE,Staten Island,10312,STATEN IS,40.523757,-74.185941,3,51,198,5082345,5065440001,Annadale-Huguenot-Prince's Bay-Eltingville                                 ,"(40.523757, -74.185941)",
P.S. 078 - STATEN ISLAND,R,31,FY16 RESO A AUDITORIUM UPGRADE,235200,CIP,R014,100 TOMPKINS AVENUE,Staten Island,10304,STATEN IS,40.622455,-74.078508,1,49,29,5014176,5005450110,Stapleton-Rosebank                                                         ,"(40.622455, -74.078508)",
P.S. 19 - STATEN ISLAND,R,31,PARAPETS/FLOOD/AREAWAY WINDOWS/EXT MASONRY,4814365.81,CIP,R019,780 POST AVENUE,Staten Island,10310,STATEN IS,40.631214,-74.127101,1,49,141,5006175,5002270024,West New Brighton-New Brighton-St. George                                  ,"(40.631214, -74.127101)",
P.S. 29 - STATEN ISLAND,R,31,EXTERIOR MASONRY/ROOFS/PARAPETS,3790030,CIP,R029,1581 VICTORY BLVD,Staten Island,10314,STATEN IS,40.613604,-74.115988,1,50,147,5009028,5003310001,Westerleigh                                                                ,"(40.613604, -74.115988)",
P.S. 30 - STATEN ISLAND,R,31,FY16 RESO A LOW-VOLTAGE ELECTRICAL SYSTEM,534941,CIP,R030,200 WARDWELL AVE,Staten Island,10314,STATEN IS,40.618439,-74.132645,1,50,201,5113069,5004230009,Westerleigh                                                                ,"(40.618439, -74.132645)",
I.S. 34 - STATEN ISLAND,R,31,FULL PROGRAM ACCESSIBILITY/FIRE ALARM SYSTEM,11177000,CIP,R034,528 ACADEMY AVE,Staten Island,10307,STATEN IS,40.508284,-74.243428,3,51,24401,5088090,5078940001,Charleston-Richmond Valley-Tottenville                                     ,"(40.508284, -74.243428)",
P.S. 35 - STATEN ISLAND,R,31,FY14 RESO A ATHLETIC FIELDS,1280000,CIP,R035,60 FOOTE AVENUE,Staten Island,10301,STATEN IS,40.613721,-74.099626,1,49,47,5015603,5006100127,Grymes Hill-Clifton-Fox Hills                                              ,"(40.613721, -74.099626)",
P.S. 35 - STATEN ISLAND,R,31,HEATING PLANT/CLIMATE CONTROL,3738000,CIP,R035,60 FOOTE AVENUE,Staten Island,10301,STATEN IS,40.613721,-74.099626,1,49,47,5015603,5006100127,Grymes Hill-Clifton-Fox Hills                                              ,"(40.613721, -74.099626)",
P.S. 41 - STATEN ISLAND,R,31,MAIN ELECTRICAL SERVICE/LOW VOLTAGE ELEC SYSTEM,1649000,CIP,R041,216 CLAWSON STREET,Staten Island,10306,STATEN IS,40.574044,-74.109282,2,50,122,5052791,5036450007,New Dorp-Midland Beach                                                     ,"(40.574044, -74.109282)",
CSI HS FOR INTERNATIONAL STUDI,R,31,PLAYGROUND REDEVELOPMENT,2923000,CIP,R043,100 ESSEX DRIVE,Staten Island,10314,STATEN IS,40.581315,-74.158589,2,51,27702,5149609,5024500320,Todt Hill-Emerson Hill-Heartland Village-Lighthouse Hill                   ,"(40.581315, -74.158589)",
P.S. 44 - STATEN ISLAND,R,31,EXTERIOR MASONRY/PARAPETS/ROOFS/WINDOWS,9777000,CIP,R044,80 MAPLE PARKWAY,Staten Island,10303,STATEN IS,40.63179,-74.156439,1,49,231,5027641,5012180001,Mariner's Harbor-Arlington-Port Ivory-Graniteville                         ,"(40.63179, -74.156439)",
P.S. 44 - STATEN ISLAND,R,31,REPAIR-CERTIFICATE OF OCCUPANCY,1270000,CIP,R044,80 MAPLE PARKWAY,Staten Island,10303,STATEN IS,40.63179,-74.156439,1,49,231,5027641,5012180001,Mariner's Harbor-Arlington-Port Ivory-Graniteville                         ,"(40.63179, -74.156439)",
P.S. 45 - STATEN ISLAND,R,31,ROOFS/PARAPETS /EXTERIOR MASONRY/FLOOD ELIMINATION,11349891,CIP,R045,58 LAWRENCE AVENUE,Staten Island,10310,STATEN IS,40.628558,-74.107148,1,49,121,5007417,5002760007,New Brighton-Silver Lake                                                   ,"(40.628558, -74.107148)",
P.S. 48 - STATEN ISLAND,R,31,RETAINING WALL,464786,CIP,R048,1055 TARGEE STREET,Staten Island,10304,STATEN IS,40.60223,-74.091355,2,50,50,5046419,5031710001,Grasmere-Arrochar-Ft. Wadsworth                                            ,"(40.60223, -74.091355)",
P.S. 50 - STATEN ISLAND,R,31,FY16 RESO A PLAYGROUND REDEVELOPMEN,329000,CIP,R050,200 ADELAIDE AVENUE,Staten Island,10306,STATEN IS,40.561691,-74.124622,3,50,13204,5063495,5047160060,Oakwood-Oakwood Beach                                                      ,"(40.561691, -74.124622)",
P.S. 52 - STATEN ISLAND,R,31,REPAIR-C OF O/SANDY-FLOOD/SAFETY/HEAT/VENT/INT/ELE,16941000,CIP,R052,450 BUEL AVENUE,Staten Island,10305,STATEN IS,40.582744,-74.088509,2,50,11201,5053746,5037050001,Old Town-Dongan Hills-South Beach                                          ,"(40.582744, -74.088509)",
I.S. 72 - STATEN ISLAND,R,31,FY16 RESO A AUDITORIUM UPGRADE,184000,CIP,R072,33 FERNDALE AVENUE,Staten Island,10314,STATEN IS,40.593005,-74.158988,2,51,27706,5037524,5023640001,Todt Hill-Emerson Hill-Heartland Village-Lighthouse Hill                   ,"(40.593005, -74.158988)",
NEW DORP HS - STATEN ISLAND,R,31,FY14 RESO A AUDITORIUM UPGRADE,724800,CIP,R435,465 NEW DORP LANE,Staten Island,10306,STATEN IS,40.569393,-74.107737,2,50,11202,5055367,5039300010,New Dorp-Midland Beach                                                     ,"(40.569393, -74.107737)",
CURTIS HS - STATEN ISLAND,R,31,BRIDGE & REPAIR WK/PARAPETS/WASTE SYS/WINDOWS/ROOF,12443000,CIP,R450,105 HAMILTON AVENUE,Staten Island,10301,STATEN IS,40.644735,-74.081222,1,49,7,5106483,5000220001,West New Brighton-New Brighton-St. George                                  ,"(40.644735, -74.081222)",
TOTTENVILLE HS - STATEN ISLAND,R,31,FY 16 RESO A WIRING UPGRADE,1335000,CIP,R455,100 LUTEN AVENUE,Staten Island,10312,STATEN IS,40.528092,-74.192032,3,51,198,5082634,5066130001,Annadale-Huguenot-Prince's Bay-Eltingville                                 ,"(40.528092, -74.192032)",
RALPH MCKEE VOC HS - S. I.,R,31,FY16 RESO A ROOM CONVERSIONS,226260,CIP,R600,290 ST MARKS PLACE,Staten Island,10301,STATEN IS,40.642793,-74.07873,1,49,9,5000314,5000190004,West New Brighton-New Brighton-St. George                                  ,"(40.642793, -74.07873)",
P.S. 80 - STATEN ISLAND,R,31,GAS SERVICE,220108,CIP,R880,715 OCEAN TERRACE,Staten Island,10301,STATEN IS,40.608517,-74.102078,2,50,177,5113169,5006830001,Todt Hill-Emerson Hill-Heartland Village-Lighthouse Hill                   ,"(40.608517, -74.102078)",
P.S. 80 - STATEN ISLAND,R,31,PAVED AREAS,2856387.3,CIP,R885,715 OCEAN TERRACE,Staten Island,10301,STATEN IS,40.608517,-74.102078,2,50,177,5113169,5006830001,Todt Hill-Emerson Hill-Heartland Village-Lighthouse Hill                   ,"(40.608517, -74.102078)",
P.S. 9 - BRONX,X,10,PLANYC BOILER CNVSN/PLANYC CLIMATE CTRL,6542000,CIP,X009,230 EAST 183 STREET,Bronx,10458,BRONX    ,40.857067,-73.898936,5,15,38301,2013561,2031500010,Fordham South                                                              ,"(40.857067, -73.898936)",
P.S. 25 - BRONX,X,7,EXTERIOR MASONRY/PARAPETS/ROOFS/WINDOWS,11840000,CIP,X025,811 EAST 149 STREET,Bronx,10455,BRONX    ,40.812619,-73.906063,1,8,79,2004772,2026640001,Melrose South-Mott Haven North                                             ,"(40.812619, -73.906063)",
P.S. 396 - BRONX,X,10,PLANYC BOILER CNVSN/PLANYC CLIMATE CTRL,5386000,CIP,X026,1930 ANDREWS AVENUE,Bronx,10453,BRONX    ,40.854701,-73.913197,5,14,24502,2014692,2032160002,University Heights-Morris Heights                                          ,"(40.854701, -73.913197)",
P.S. 32 - BRONX,X,10,EXTERIOR MASONRY/WINDOWS/PARAPETS,6239400,CIP,X032,690 EAST 183 STREET,Bronx,10458,BRONX    ,40.852103,-73.885935,6,15,391,2012409,2030850001,Belmont                                                                    ,"(40.852103, -73.885935)",
P.S. 33 - BRONX,X,10,PLANYC BOILER CNVSN/PLANYC CLIMATE CTRL,4829000,CIP,X033,2424 JEROME AVENUE,Bronx,10468,BRONX    ,40.86185,-73.90176,5,14,239,2014099,2031880020,Fordham South                                                              ,"(40.86185, -73.90176)",
P.S. 36 - BRONX,X,8,EXT MASONRY/ROOFS/PARAPETS/WINDOWS/EXT DOORS/FLOOD,12843000,CIP,X036,1070 CASTLE HILL AVENUE,Bronx,10472,BRONX    ,40.829344,-73.850428,9,18,78,2026706,2038170001,Westchester-Unionport                                                      ,"(40.829344, -73.850428)",
P.S. 212 - BRONX,X,12,RENEWAL SBHC,1915000,CIP,X198,1180 TINTON AVENUE,Bronx,10456,BRONX    ,40.828419,-73.900721,3,17,135,2004869,2026720001,Morrisania-Melrose                                                         ,"(40.828419, -73.900721)",
P.S. 47 - BRONX,X,12,ROOFS/PARAPETS/MASONRY/FLOOD,9142000,CIP,X047,1794 EAST 172 STREET,Bronx,10472,BRONX    ,40.832902,-73.866848,9,18,76,2025622,2037860016,West Farms-Bronx River                                                     ,"(40.832902, -73.866848)",
P.S. 48 - BRONX,X,8,FULL ACCESSIBILITY,9100000,CIP,X048,1290 SPOFFORD AVENUE,Bronx,10474,BRONX    ,40.814425,-73.886953,2,17,93,2006680,2027660001,Hunts Point                                                                ,"(40.814425, -73.886953)",
P.S. 66 - BRONX,X,12,RENEWAL SCHOOL BASED HEALTH CENTER,1794786,CIP,X066,1001 JENNINGS STREET,Bronx,10460,BRONX    ,40.831165,-73.887094,3,17,157,2010916,2030080001,Crotona Park East                                                          ,"(40.831165, -73.887094)",
P.S. 70 - BRONX,X,9,EXT MASONRY/ROOFS/PARAPETS,6431300,CIP,X070,1691 WEEKS AVENUE,Bronx,10457,BRONX    ,40.844253,-73.907616,4,15,22902,2007387,2027930028,Mount Hope                                                                 ,"(40.844253, -73.907616)",
I.S. 424 - BRONX,X,8,DEFECTIVE RETAINING WALL,399000,CIP,X074,730 BRYANT AVENUE,Bronx,10474,BRONX    ,40.815477,-73.88577,2,17,117,2006566,2027630279,Hunts Point                                                                ,"(40.815477, -73.88577)",
I.S. 80 - BRONX,X,10,ACCESSIBILITY,2583000,CIP,X080,149 EAST MOSHOLU PKWY N,Bronx,10467,BRONX    ,40.876299,-73.881532,7,11,419,2018046,2033360035,Norwood                                                                    ,"(40.876299, -73.881532)",
P.S. 81 - BRONX,X,10,WINDOW/ROOFS/EXT MASONRY/FLOOD,3147559,CIP,X081,5550 RIVERDALE AVENUE,Bronx,10471,BRONX    ,40.903553,-73.905229,8,11,337,2084806,2058501550,North Riverdale-Fieldston-Riverdale                                        ,"(40.903553, -73.905229)",
I.S. 232 - BRONX,X,9,OIL VAULT & STAIRWAY/PIPING/TOILETS/FLOOD,8819000,CIP,X082,1700 MACOMBS ROAD,Bronx,10453,BRONX    ,40.849623,-73.91607,5,14,21502,2008460,2028660070,University Heights-Morris Heights                                          ,"(40.849623, -73.91607)",
I.S. 113 - BRONX,X,11,FUEL OIL TANK LEAKAGE/CLIMATE CTRL,5677330,CIP,X113,3710 BARNES AVENUE,Bronx,10467,BRONX    ,40.880873,-73.860904,12,12,390,2058396,2046750020,Williamsbridge-Olinville                                                   ,"(40.880873, -73.860904)",
I.S. 123 - BRONX,X,8,RENEWAL SCHOOL BASED HEALTH CENTER,1950000,CIP,X123,1025 MORRISON AVENUE,Bronx,10472,BRONX    ,40.825403,-73.873666,9,18,48,2087014,2037180001,Soundview-Bruckner                                                         ,"(40.825403, -73.873666)",
I.S. 125 - BRONX,X,8,LIGHTING REPLACEMENT (DCAS),1300019,CIP,X125,1111 PUGSLEY AVENUE,Bronx,10472,BRONX    ,40.829232,-73.856734,9,18,4001,2025717,2037900040,Soundview-Bruckner                                                         ,"(40.829232, -73.856734)",
I.S. 322 - BRONX,X,11,PERMANENT REPAIRS (CEILING TILES),2787000,CIP,X135,2441 WALLACE AVENUE,Bronx,10467,BRONX    ,40.862109,-73.864577,11,13,330,2051313,2044320001,Bronxdale                                                                  ,"(40.862109, -73.864577)",
X186 SPED - BRONX,X,12,PARAPET/FLOOD ELIM/EXT MASONRY/ROOFS,11642000,CIP,X136,750 JENNINGS STREET,Bronx,10459,BRONX    ,40.83182,-73.898075,3,16,151,2010344,2029690001,Morrisania-Melrose                                                         ,"(40.83182, -73.898075)",
I.S. 391 - BRONX,X,10,RENEWAL SBHC,2068500,CIP,X137,2225 WEBSTER AVENUE,Bronx,10457,BRONX    ,40.854493,-73.896717,5,15,379,2013307,2031430043,Mount Hope                                                                 ,"(40.854493, -73.896717)",
I.S. 244 - BRONX,X,10,ACCESS RAMP & WALL/FLOOD/ROOFS/PARAPETS,4745900,CIP,X143,120 WEST 231 STREET,Bronx,10463,BRONX    ,40.875911,-73.901099,8,14,273,2015547,2032530141,Van Cortlandt Village                                                      ,"(40.875911, -73.901099)",
I.S. 144 - BRONX,X,11,PLANYC BOILER CONVERSION/CLIMATE CONTROL,5423000,CIP,X144,2545 GUNTHER AVENUE,Bronx,10469,BRONX    ,40.863735,-73.83607,11,13,310,2053518,2044930001,Allerton-Pelham Gardens                                                    ,"(40.863735, -73.83607)",
I.S. 145 - BRONX,X,9,REPAIR SINK HOLE,653815,CIP,X145,1000 TELLER AVENUE,Bronx,10456,BRONX    ,40.827941,-73.914374,4,16,173,2097111,2024240001,East Concourse-Concourse Village                                           ,"(40.827941, -73.914374)",
I.S. 339 - BRONX,X,9,RENEWAL SCHOOL BASED HEALTH CENTER,1920000,CIP,X147,1600 WEBSTER AVENUE,Bronx,10457,BRONX    ,40.840878,-73.904754,3,16,167,2009400,2028970005,Claremont-Bathgate                                                         ,"(40.840878, -73.904754)",
BRONX EARLY COLLEGE ACADEMY,X,9,SCIENCE LAB UPGRADE,2889000,CIP,X166,250 EAST 164 STREET,Bronx,10456,BRONX    ,40.828696,-73.917668,4,16,18302,2002497,2024460043,East Concourse-Concourse Village                                           ,"(40.828696, -73.917668)",
P.S. 236 - BRONX,X,9,FALLING COPING STONES/EXT MASONRY,2589000,CIP,X173,1871 WALTON AVENUE,Bronx,10453,BRONX    ,40.848899,-73.909528,5,14,23301,2098479,2028510021,Mount Hope                                                                 ,"(40.848899, -73.909528)",
BRONX MATH PREP - BRONX,X,8,PAVED AREAS-CONCRETE,470000,CIP,X174,456 WHITE PLAINS ROAD,Bronx,10473,BRONX    ,40.814833,-73.85658,9,18,4,2020580,2034780018,Soundview-Castle Hill-Clason Point-Harding Park                            ,"(40.814833, -73.85658)",
P.S. 230 - BRONX,X,9,SEWAGE LEAK/FIRE SYS SPRINKLER/CRACKED CONCRETE/FA,14230000,CIP,X229,275 HARLEM RIVER PARK BRIDGE,Bronx,10453,BRONX    ,40.852536,-73.921467,5,16,53,2009253,2028820130,University Heights-Morris Heights                                          ,"(40.852536, -73.921467)",
I.S. 254 - BRONX,X,10,FACADE/ROOFS,3600000,CIP,X254,2452 WASHINGTON AVENUE,Bronx,10458,BRONX    ,40.858815,-73.890232,6,15,387,2103863,2030580003,Belmont                                                                    ,"(40.858815, -73.890232)",
MORRIS H.S.,X,9,CERTIFICATE OF OCCUPANCY,5229000,CIP,X400,1110 BOSTON RD,Bronx,10456,BRONX    ,40.827642,-73.904473,3,16,135,2004526,2026340001,Morrisania-Melrose                                                         ,"(40.827642, -73.904473)",
HERBERT H. LEHMAN HS - X,X,11,SANDY ELEC/HEAT/FLOOD/CLIM/SINK HOLES/PLUMBING,29723000,CIP,X405,3000 EAST TREMONT AVENUE,Bronx,10461,BRONX    ,40.840702,-73.838545,10,13,194,2074045,2053680001,Schuylerville-Throgs Neck-Edgewater Park                                   ,"(40.840702, -73.838545)",
CHRISTOPHER COLUMBUS HS - X,X,11,PARAPETS/ROOFS/EXT MASONRY,5577000,CIP,X415,925 ASTOR AVENUE,Bronx,10469,BRONX    ,40.859665,-73.861006,11,13,324,2050179,2043580001,Bronxdale                                                                  ,"(40.859665, -73.861006)",
MONROE ACAD FOR VISUAL ARTS -,X,12,BOILER/CLIMATE CONTROL/WATER INFILTRATION,8511800,CIP,X420,1300 BOYNTON AVENUE,Bronx,10472,BRONX    ,40.831601,-73.878912,9,18,56,2027459,2038640001,West Farms-Bronx River                                                     ,"(40.831601, -73.878912)",
KINGSBRIDGE INTERNATIONAL HS -,X,10,FY16 RESO A RETRACTABLE WALL,190000,CIP,X430,2780 RESERVOIR AVENUE,Bronx,10468,BRONX    ,40.870293,-73.898309,7,11,409,2015241,2032470070,Van Cortlandt Village                                                      ,"(40.870293, -73.898309)",
M.S./H.S. 342 - BRONX,X,10,BOILER FOR SWIMMING,2152000,CIP,X430,2780 RESERVOIR AVENUE,Bronx,10468,BRONX    ,40.870293,-73.898309,7,11,409,2015241,2032470070,Van Cortlandt Village                                                      ,"(40.870293, -73.898309)",
I.S. 243 - BRONX,X,10,ROOFS/PARAPETS/EXT MASONRY/WINDOWS,50553000,CIP,X435,500 EAST FORDHAM ROAD,Bronx,10458,BRONX    ,40.860043,-73.888267,6,15,387,2011810,2030590001,Belmont                                                                    ,"(40.860043, -73.888267)",
DEWITT CLINTON HS - X,X,10,EXTERIOR MASONRY/FLOOD ELIMINATION/PARAPETS/ROOF,27189000,CIP,X440,100 W MOSHOLU PKWY S,Bronx,10468,BRONX    ,40.882178,-73.88691,7,11,409,2095215,2032510201,Van Cortlandt Village                                                      ,"(40.882178, -73.88691)",
BRONX HS OF SCIENCE - X,X,10,ROOF REPLACEMENT/PARAPETS,8985000,CIP,X445,75 W 205 STREET,Bronx,10468,BRONX    ,40.87759,-73.89104,7,11,409,2094706,2032510201,Van Cortlandt Village                                                      ,"(40.87759, -73.89104)",
JOHN F. KENNEDY HS - BRONX,X,10,SCIENCE LAB UPGRADE,5547000,CIP,X475,99 TERRACE VIEW AVENUE,Bronx,10463,BRONX    ,40.877105,-73.912256,8,10,309,1064532,1022150080,Marble Hill-Inwood                                                         ,"(40.877105, -73.912256)",
MARBLE HILL INTERNATIONAL HS -,X,10,EXT MASONRY/SCIENCE LAB UPG/INTERIOR SPACES,10711000,CIP,X475,99 TERRACE VIEW AVENUE,Bronx,10463,BRONX    ,40.877105,-73.912256,8,10,309,1064532,1022150080,Marble Hill-Inwood                                                         ,"(40.877105, -73.912256)",
ALFRED E. SMITH HS - X,X,7,FY16 RESO A AUDITORIUM UPGRADE,464500,CIP,X600,333 EAST 151 STREET,Bronx,10451,BRONX    ,40.818232,-73.919867,1,17,67,2001874,2024110022,Melrose South-Mott Haven North                                             ,"(40.818232, -73.919867)",
X721 SPED - BRONX,X,11,PLANYC BOILER CNVRSN/PLANYC CLIMATE CTRL,5390630,CIP,X722,2697 WESTCHESTER AVENUE,Bronx,10461,BRONX    ,40.842289,-73.838949,11,13,284,2045725,2041330200,Van Nest-Morris Park-Westchester Square                                    ,"(40.842289, -73.838949)",
P.S. 226 - BRONX,X,10,DEFECTIVE MASONRY/ROOFS/FLOOD ELIMINATION,2787000,CIP,X826,1950 SEDGWICK AVENUE,Bronx,10453,BRONX    ,40.856586,-73.916198,5,14,249,2096465,2032220100,University Heights-Morris Heights                                          ,"(40.856586, -73.916198)",
P.S. 226 - BRONX,X,10,FY08 RESO A GYM UPGRADE,4800000,CIP,X827,1910 SEDGWICK AVENUE,Bronx,10453,BRONX    ,40.855944,-73.916358,5,14,249,2096465,2032220100,University Heights-Morris Heights                                          ,"(40.855944, -73.916358)",
P.S. 246 - BRONX,X,10,ELEVATOR/EXT MASONRY/FLOOD/PARAPETS/ROOFS/WALL,11448000,CIP,X843,2641 GRAND CONCOURSE,Bronx,10468,BRONX    ,40.865593,-73.894758,7,14,401,2013830,2031680027,Bedford Park-Fordham North                                                 ,"(40.865593, -73.894758)",
P.S. 32 ADDITION - BROOKLYN,K,15,Addition,74426000,CAP,K032,317 HOYT STREET,Brooklyn,11231,BROOKLYN ,40.680445,-73.991949,6,39,75,3395587,3004370001,Carroll Gardens-Columbia Street-Red Hook                                   ,"(40.680445, -73.991949)",11/13/2017
P.S. 101 - BROOKLYN,K,21,Addition,65999000,CAP,K101,2360 BENSON AVENUE,Brooklyn,11214,BROOKLYN ,40.597863,-73.991693,11,47,302,3185973,3068750032,Bensonhurst East                                                           ,"(40.597863, -73.991693)",11/13/2017
EDUCATIONAL CAMPUS @ 500 19TH STREET - BROOKLYN,K,15,Lease,15400000,CAP,K280,500 19TH STREET,Brooklyn,11215,BROOKLYN ,40.656944,-73.983115,7,38,1502,3017307,3008890001,Windsor Terrace                                                            ,"(40.656944, -73.983115)",11/13/2017
P.S./I.S. 338 - BROOKLYN,K,22,Demo,739309,CAP,K338,21 HINCKLEY PLACE,Brooklyn,11218,BROOKLYN ,40.644469,-73.971032,12,40,492,3124801,3053420006,Kensington-Ocean Parkway                                                   ,"(40.644469, -73.971032)",11/13/2017
P.S./I.S. 338 - BROOKLYN,K,22,New,67683691,CAP,K338,21 HINCKLEY PLACE,Brooklyn,11218,BROOKLYN ,40.644469,-73.971032,12,40,492,3124801,3053420006,Kensington-Ocean Parkway                                                   ,"(40.644469, -73.971032)",11/13/2017
P.S. @ 4302 4TH AVENUE - BROOKLYN,K,15,New,0,CAP,K557,4302 4TH AVENUE,Brooklyn,11232,BROOKLYN ,40.650305,-74.008602,7,38,82,3337162,3007280036,Sunset Park West                                                           ,"(40.650305, -74.008602)",11/13/2017
PRE-K CENTER @ 369 93RD STREET - BROOKLYN,K,20,New,27637000,CAP,K613,369 93RD STREET,Brooklyn,11209,BROOKLYN ,40.618041,-74.031381,10,43,58,3155119,3061030042,Bay Ridge                                                                  ,"(40.618041, -74.031381)",11/13/2017
P.S./I.S. @ 3269 ATLANTIC AVENUE - BROOKLYN,K,19,New,14968000,CAP,K667,3269 ATLANTIC AVENEUE,Brooklyn,11218,,,,,,,,,,,11/13/2017
P.S. 677 - BROOKLYN,K,84,Lease,0,CAP,K677,139 MENAHAN STREET,Brooklyn,11221,BROOKLYN ,40.695717,-73.919473,4,37,419,3325706,3033060015,Bushwick South                                                             ,"(40.695717, -73.919473)",11/13/2017
P.S. 746 - BROOKLYN,K,20,New,92747000,CAP,K746,256 59TH STREET,Brooklyn,11220,BROOKLYN ,40.643337,-74.021011,7,38,22,3016235,3008610029,Sunset Park West                                                           ,"(40.643337, -74.021011)",11/13/2017
PRE-K CENTER @ 1355 84TH STREET - BROOKLYN,K,20,Lease,0,CAP,K762,1355 84TH STREET,Brooklyn,11228,BROOKLYN ,40.614466,-74.011425,10,43,150,3335077,3063090048,Dyker Heights                                                              ,"(40.614466, -74.011425)",11/13/2017
P.S. 884 - BROOKLYN,K,84,Lease,0,CAP,K884,15 SNYDER AVENUE,Brooklyn,11226,BROOKLYN ,40.648568,-73.957639,14,40,794,3117232,3051030101,Erasmus                                                                    ,"(40.648568, -73.957639)",11/13/2017
P.S. 884 - BROOKLYN,K,84,Lease,2162000,CAP,K884,15 SNYDER AVENUE,Brooklyn,11226,BROOKLYN ,40.648568,-73.957639,14,40,794,3117232,3051030101,Erasmus                                                                    ,"(40.648568, -73.957639)",11/13/2017
I.S. 323 - MANHATTAN,M,2,New,98820000,CAP,M323,75 MORTON STREET,Manhattan,10014,MANHATTAN,40.730999,-74.007191,2,3,69,1010407,1006030049,West Village                                                               ,"(40.730999, -74.007191)",11/13/2017
P.S. 342 (RIVERSIDE CENTER) - MANHATTAN,M,3,New,74425721,CAP,M342,300 WEST 61ST STREET,Manhattan,10023,MANHATTAN,40.772883,-73.989609,7,6,151,1088870,1011717510,Lincoln Square                                                             ,"(40.772883, -73.989609)",11/13/2017
,M,2,,0,CAP,M777,227 WEST 27TH STREET,Manhattan,,,,,,,,,,,,11/13/2017
